,City Name,City ID,Lat,Lon,Max Temp,Humidity,Cloudiness,Wind speed,Country,Date
0,hobart,2163355,-42.8794,147.3294,288.15,51,40,5.7,AU,1609927005
1,rikitea,4030556,-23.1203,-134.9692,297.92,71,94,3.67,PF,1609927275
2,verkhoyansk,2013465,67.5447,133.385,237.04,78,13,1.17,RU,1609927641
3,butaritari,2110227,3.0707,172.7902,300.9,80,35,8.9,KI,1609927328
4,castro,3466704,-24.7911,-50.0119,292.18,94,47,2.93,BR,1609927272
5,isangel,2136825,-19.55,169.2667,300.15,88,90,1.0,VU,1609927324
6,nikolskoye,546105,59.7035,30.7861,271.15,92,90,4.0,RU,1609927298
7,bluff,2206939,-46.6,168.3333,291.48,93,100,0.89,NZ,1609927271
8,qaanaaq,3831208,77.484,-69.3632,251.7,85,100,0.42,GL,1609927276
9,sao filipe,3374210,14.8961,-24.4956,298.19,66,73,3.44,CV,1609927432
10,saldanha,3361934,-33.0117,17.9442,297.15,72,0,7.7,ZA,1609927275
11,mandalgarh,1263911,25.2,75.1,297.74,36,0,2.38,IN,1609927827
12,evensk,2125693,61.95,159.2333,248.52,79,0,1.51,RU,1609927827
13,carnarvon,2074865,-24.8667,113.6333,304.15,52,81,6.7,AU,1609927205
14,vaini,4032243,-21.2,-175.2,297.15,100,20,2.33,TO,1609927290
15,bijie,1816373,27.3125,105.2942,274.04,90,100,2.53,CN,1609927708
16,busselton,2075265,-33.65,115.3333,305.93,21,34,5.2,AU,1609927230
17,council bluffs,4852832,41.2619,-95.8608,276.48,91,90,5.1,US,1609927828
18,hithadhoo,1282256,-0.6,73.0833,301.32,76,55,5.57,MV,1609927207
19,kruisfontein,986717,-34.0033,24.7314,297.12,59,89,3.9,ZA,1609927290
20,toucheng,1674199,24.8592,121.8233,288.71,93,75,4.6,TW,1609927829
21,mataura,6201424,-46.1927,168.8643,291.48,93,100,0.89,NZ,1609927281
22,jamestown,5122534,42.097,-79.2353,272.04,92,90,3.1,US,1609927271
23,hilo,5855927,19.7297,-155.09,293.15,82,1,2.6,US,1609927283
24,haines junction,5969025,60.7522,-137.5108,260.21,91,100,1.6,CA,1609927830
25,san pedro,1688781,14.35,121.0167,302.15,70,20,4.1,PH,1609927830
26,cape town,3369157,-33.9258,18.4232,297.59,56,0,7.7,ZA,1609927083
27,avera,4231997,33.194,-82.5271,274.15,76,1,1.5,US,1609927830
28,lagoa,3372964,39.05,-27.9833,286.62,67,100,17.21,PT,1609927323
29,east london,1006984,-33.0153,27.9116,298.15,57,20,4.6,ZA,1609927285
30,kodiak,5866583,57.79,-152.4072,276.15,74,75,5.1,US,1609927292
31,husavik,2629833,66.0449,-17.3389,272.15,54,0,2.1,IS,1609927831
32,mount gambier,2156643,-37.8333,140.7667,289.15,67,75,7.7,AU,1609927337
33,atuona,4020109,-9.8,-139.0333,298.27,77,99,6.87,PF,1609927265
34,chuy,3443061,-33.6971,-53.4616,295.37,89,96,5.4,UY,1609927307
35,cayenne,3382160,4.9333,-52.3333,297.15,100,42,0.5,GF,1609927602
36,mar del plata,3430863,-38.0023,-57.5575,292.59,100,90,7.7,AR,1609927284
37,severo-kurilsk,2121385,50.6789,156.125,264.48,90,69,6.67,RU,1609927303
38,mehamn,778707,71.0357,27.8492,275.15,80,20,7.2,NO,1609927834
39,ostersund,2685750,63.1792,14.6357,259.26,84,0,1.37,SE,1609927834
40,pilar,3392126,-9.5972,-35.9567,298.15,83,0,1.5,BR,1609927834
41,ushuaia,3833367,-54.8,-68.3,283.15,76,75,2.1,AR,1609927032
42,yar-sale,1486321,66.8333,70.8333,248.51,88,72,7.46,RU,1609927835
43,oranjemund,3354071,-28.55,16.4333,293.78,66,4,7.35,NA,1609927807
44,tuktoyaktuk,6170031,69.4541,-133.0374,247.89,89,98,2.68,CA,1609927273
45,puerto ayora,3652764,-0.7393,-90.3518,293.71,95,47,0.45,EC,1609927261
46,ponta do sol,2264557,32.6667,-17.1,288.15,89,100,0.45,PT,1609927297
47,kloulklubed,7671223,7.0419,134.2556,298.15,94,75,8.46,PW,1609927836
48,rondonopolis,3450909,-16.4708,-54.6356,296.32,90,99,0.76,BR,1609927836
49,khatanga,2022572,71.9667,102.5,254.62,91,100,10.93,RU,1609927288
50,te anau,2181625,-45.4167,167.7167,286.5,88,100,1.08,NZ,1609927837
51,sheridan,5838199,44.8333,-106.9173,269.15,58,1,1.5,US,1609927837
52,inirida,3671450,3.8653,-67.9239,294.97,97,99,0.42,CO,1609927838
53,albany,5106841,42.6001,-73.9662,271.48,82,94,3.08,US,1609927290
54,constitucion,3893726,-35.3333,-72.4167,285.89,82,0,1.08,CL,1609927300
55,morondava,1058381,-20.2833,44.2833,303.12,66,34,4.17,MG,1609927838
56,puerto concordia,3792395,2.6221,-72.7572,294.06,83,98,1.1,CO,1609927838
57,bengkulu,1649150,-3.8004,102.2655,300.29,84,97,7.27,ID,1609927240
58,semey,1519422,50.4111,80.2275,243.15,67,0,1.0,KZ,1609927840
59,hermanus,3366880,-34.4187,19.2345,295.93,76,86,0.89,ZA,1609927277
60,petropavlovsk-kamchatskiy,2122104,53.0452,158.6483,264.15,78,90,1.0,RU,1609927200
61,ribeira grande,3372707,38.5167,-28.7,286.15,66,40,15.9,PT,1609927268
62,punta arenas,3874787,-53.15,-70.9167,283.15,76,100,2.1,CL,1609927264
63,la libertad,3655131,-2.2333,-80.9,294.77,81,99,2.98,EC,1609927841
64,samarai,2132606,-10.6167,150.6667,302.1,76,100,6.32,PG,1609927841
65,koulikoro,2454532,14.0,-7.75,302.59,13,0,5.15,ML,1609927841
66,makakilo city,5850554,21.3469,-158.0858,296.15,73,20,4.43,US,1609927596
67,kapaa,5848280,22.0752,-159.319,297.15,83,90,6.2,US,1609927285
68,chumikan,2025256,54.7183,135.315,243.73,79,1,6.44,RU,1609927279
69,neepawa,6086673,50.2289,-99.4664,273.15,97,90,3.6,CA,1609927309
70,dandong,2037886,40.1292,124.3947,258.44,69,89,8.48,CN,1609927621
71,saskylakh,2017155,71.9167,114.0833,256.76,91,98,10.97,RU,1609927321
72,porto novo,2392087,6.4965,2.6036,302.15,89,40,1.5,BJ,1609927342
73,vaitape,4033077,-16.5167,-151.75,300.21,74,46,5.71,PF,1609927843
74,elko,5703673,41.0002,-115.5012,267.04,90,30,1.34,US,1609927843
75,los llanos de aridane,2514651,28.6585,-17.9182,297.15,50,40,15.9,ES,1609927579
76,saint george,5546220,37.1041,-113.5841,276.48,51,1,1.5,US,1609927311
77,geraldton,2070998,-28.7667,114.6,304.15,35,0,10.8,AU,1609927251
78,qandala,53157,11.472,49.8728,297.77,53,7,4.64,SO,1609927844
79,kota,1266049,25.1833,75.8333,298.73,37,3,2.53,IN,1609927660
80,buala,2109528,-8.145,159.5921,300.98,80,81,3.78,SB,1609927338
81,awbari,2219235,26.5921,12.7805,296.15,26,38,3.17,LY,1609927608
82,rio grande,3451138,-32.035,-52.0986,295.37,98,7,4.26,BR,1609927635
83,krasnyy chikoy,2012349,50.3643,108.7512,246.74,85,100,2.27,RU,1609927845
84,rio branco,3662574,-9.9747,-67.81,295.15,100,75,1.34,BR,1609927846
85,jacareacanga,3397763,-6.2222,-57.7528,295.23,97,79,0.38,BR,1609927326
86,pitimbu,3391889,-7.4706,-34.8086,297.15,94,20,1.5,BR,1609927846
87,sitka,5557293,57.0531,-135.33,279.15,75,90,6.2,US,1609927445
88,san patricio,4726521,28.017,-97.5169,291.15,93,75,3.6,US,1609927334
89,gobabis,3357247,-22.45,18.9667,299.15,57,33,1.5,NA,1609927807
90,la ronge,6050066,55.1001,-105.2842,263.15,85,100,1.5,CA,1609927278
91,guerrero negro,4021858,27.9769,-114.0611,286.21,71,0,1.39,MX,1609927357
92,barentu,342711,15.1139,37.5928,304.48,20,0,2.2,ER,1609927847
93,asau,686090,46.4333,26.4,280.93,48,3,1.48,RO,1609927359
94,walvis bay,3359638,-22.9575,14.5053,297.15,64,45,3.1,NA,1609927848
95,vicosa do ceara,3385106,-3.5622,-41.0922,294.44,87,73,2.97,BR,1609927848
96,saint-philippe,935215,-21.3585,55.7679,304.15,52,75,3.1,RE,1609927291
97,chakrata,1274886,30.7,77.85,284.3,57,19,1.54,IN,1609927849
98,new norfolk,2155415,-42.7826,147.0587,288.15,51,40,5.7,AU,1609927261
99,sinnamary,3380290,5.3833,-52.95,298.63,87,60,3.79,GF,1609927849
100,saint-augustin,6137462,51.226,-58.6502,272.56,95,100,6.63,CA,1609927289
101,namatanai,2090021,-3.6667,152.4333,298.61,83,100,1.95,PG,1609927315
102,acapulco,3533462,16.8634,-99.8901,296.18,83,6,1.77,MX,1609927850
103,jinhua,1805528,29.1078,119.6547,278.62,81,100,1.75,CN,1609927648
104,georgetown,1735106,5.4112,100.3354,302.15,74,20,1.57,MY,1609927264
105,provideniya,4031574,64.3833,-173.3,251.94,82,0,2.86,RU,1609927324
106,college,5859699,64.8569,-147.8028,247.15,75,1,0.9,US,1609927851
107,ostuacan,3522293,17.4167,-93.3,292.08,99,94,0.47,MX,1609927851
108,alofi,4036284,-19.0595,-169.9187,297.15,100,100,2.1,NU,1609927426
109,saint anthony,5044290,45.0205,-93.218,270.37,86,1,2.1,US,1609927852
110,codrington,2171099,-38.2667,141.9667,286.65,83,24,6.24,AU,1609927592
111,molina,3879627,-35.1167,-71.2833,286.15,76,0,2.1,CL,1609927853
112,kavieng,2094342,-2.5744,150.7967,299.33,85,100,3.36,PG,1609927282
113,catamarca,3837702,-28.4696,-65.7852,292.04,99,89,1.34,AR,1609927854
114,esperance,2071860,-33.8667,121.9,297.15,44,0,10.8,AU,1609927206
115,margate,2643044,51.3813,1.3862,278.15,95,95,0.89,GB,1609927300
116,san antonio del norte,3602428,13.8844,-87.7031,291.15,88,75,2.1,HN,1609927854
117,kiruna,605155,67.8557,20.2251,261.15,92,44,1.14,SE,1609927855
118,emporia,4271086,38.4039,-96.1817,279.15,60,1,5.7,US,1609927614
119,victoria,1819729,22.2855,114.1577,290.37,73,100,3.23,HK,1609927156
120,san carlos de bariloche,7647007,-41.1456,-71.3082,287.59,75,0,2.6,AR,1609927855
121,dikson,1507390,73.5069,80.5464,267.46,97,100,10.33,RU,1609927298
122,mahina,4034307,-17.5065,-149.489,299.15,78,0,2.1,PF,1609927856
123,batticaloa,1250161,7.7102,81.6924,301.09,76,68,3.53,LK,1609927607
124,lavrentiya,4031637,65.5833,-171.0,247.31,83,0,4.56,RU,1609927856
125,mayo,4362001,38.8876,-76.5119,277.15,80,90,3.6,US,1609927857
126,zavoronezhskoye,464094,52.8801,40.5526,265.52,97,100,3.98,RU,1609927857
127,rohri,1166827,27.6922,68.8951,295.15,46,0,1.48,PK,1609927857
128,banda aceh,1215502,5.5577,95.3222,302.11,72,98,3.46,ID,1609927355
129,upernavik,3418910,72.7868,-56.1549,257.83,80,100,3.64,GL,1609927262
130,adrar,2381972,20.5022,-10.0711,298.01,28,100,1.33,MR,1609927337
131,grenfell,2164457,-33.9,148.1667,292.77,63,64,9.38,AU,1609927858
132,padang,1633419,-0.9492,100.3543,302.15,74,20,3.6,ID,1609927858
133,zeya,2012593,53.75,127.2667,242.71,79,78,1.69,RU,1609927859
134,san giorgio del sannio,3168305,41.0696,14.8522,284.26,76,40,4.6,IT,1609927859
135,okhotsk,2122605,59.3833,143.3,245.5,79,82,5.91,RU,1609927859
136,lensk,2020838,60.7253,114.9278,244.79,83,100,6.5,RU,1609927279
137,broome,5110365,42.2506,-75.833,270.93,86,90,6.2,US,1609927433
138,mwense,902721,-10.3845,28.698,298.94,77,100,1.8,ZM,1609927860
139,beaufort,1733874,5.3473,115.7455,302.15,74,20,5.1,MY,1609927816
140,mikhaylovka,527012,50.06,43.2379,269.26,91,100,3.13,RU,1609927860
141,tazovskiy,1489853,67.4667,78.7,248.46,89,81,6.29,RU,1609927860
142,nantucket,4944903,41.2835,-70.0995,275.15,82,90,8.2,US,1609927790
143,grand baie,934482,-20.0182,57.5802,301.48,64,9,4.47,MU,1609927861
144,ucluelet,6171633,48.9329,-125.5528,282.04,89,100,5.61,CA,1609927861
145,colac,2171069,-38.3333,143.5833,286.48,97,24,1.34,AU,1609927861
146,nemchinovka,522730,55.7228,37.3664,270.15,79,75,1.0,RU,1609927862
147,quelimane,1028434,-17.8786,36.8883,308.15,56,20,2.1,MZ,1609927862
148,san ignacio,3581194,17.1561,-89.0714,294.82,94,0,0.4,BZ,1609927862
149,tiksi,2015306,71.6872,128.8694,245.02,85,100,14.78,RU,1609927294
150,gunjur,2413419,13.2019,-16.7339,297.15,53,0,5.1,GM,1609927862
151,bathsheba,3374083,13.2167,-59.5167,297.15,94,75,7.7,BB,1609927863
152,rafaela,3839479,-31.2503,-61.4867,290.37,60,0,1.79,AR,1609927863
153,rayong,1607016,12.8333,101.4333,305.37,45,41,2.91,TH,1609927863
154,shahr-e babak,115781,30.1165,55.1186,278.16,58,0,1.5,IR,1609927863
155,airai,1651810,-8.9266,125.4092,290.95,100,100,0.36,TL,1609927276
156,sola,2134814,-13.8833,167.55,299.15,94,20,5.61,VU,1609927864
157,port elizabeth,964420,-33.918,25.5701,298.15,69,40,6.2,ZA,1609927865
158,hamilton,4513583,39.1834,-84.5333,275.15,74,90,3.1,US,1609927340
159,bowen,2174444,-20.0167,148.2333,299.15,88,75,2.6,AU,1609927865
160,bredasdorp,1015776,-34.5322,20.0403,296.15,60,92,3.1,ZA,1609927274
161,north bend,5742974,43.4065,-124.2243,284.15,76,90,6.42,US,1609927866
162,myslenice,3091256,49.8338,19.9383,275.37,78,40,3.1,PL,1609927866
163,beringovskiy,2126710,63.05,179.3167,247.55,85,2,4.87,RU,1609927866
164,barrow,5880054,71.2906,-156.7887,247.15,75,1,3.6,US,1609927267
165,andzhiyevskiy,581788,44.23,43.08,274.15,80,100,3.0,RU,1609927867
166,rosarito,3988392,32.3333,-117.0333,285.15,93,1,1.5,MX,1609927808
167,mercedes,3430708,-34.6515,-59.4307,291.48,91,82,1.79,AR,1609927867
168,natal,3394023,-5.795,-35.2094,297.15,83,40,1.0,BR,1609927342
169,port hardy,6111862,50.6996,-127.4199,280.15,87,40,4.6,CA,1609927867
170,port alfred,964432,-33.5906,26.891,298.15,80,51,2.24,ZA,1609927300
171,tura,1254046,25.5198,90.2201,297.61,44,91,1.84,IN,1609927624
172,luderitz,3355672,-26.6481,15.1594,301.15,45,0,5.1,NA,1609927307
173,fort wellington,3378690,6.4,-57.6,297.78,90,94,3.11,GY,1609927870
174,tasiilaq,3424607,65.6145,-37.6368,268.15,45,9,7.7,GL,1609927286
175,kailua,5847486,21.4022,-157.7394,296.15,73,20,3.6,US,1609927598
176,hasaki,2112802,35.7333,140.8333,279.15,70,75,3.6,JP,1609927650
177,alyangula,2079582,-13.8483,136.4192,304.15,79,90,2.84,AU,1609927871
178,norman wells,6089245,65.282,-126.8329,246.15,75,75,2.1,CA,1609927276
179,srednekolymsk,2121025,67.45,153.6833,244.13,87,99,5.12,RU,1609927872
180,oussouye,2246901,12.485,-16.5469,297.15,64,0,2.1,SN,1609927872
181,gao,2457161,16.6362,1.637,304.33,12,0,6.33,ML,1609927873
182,iranshahr,1160939,27.2025,60.6848,288.15,14,0,3.1,IR,1609927873
183,uyar,1487922,55.81,94.3153,252.63,89,100,5.38,RU,1609927873
184,bethel,5282297,41.3712,-73.414,273.15,88,0,0.89,US,1609927873
185,teguldet,1489822,57.3064,88.1667,246.5,88,5,1.24,RU,1609927319
186,mahebourg,934322,-20.4081,57.7,302.15,70,40,6.7,MU,1609927319
187,carauari,3664659,-4.8828,-66.8958,295.76,98,100,0.63,BR,1609927874
188,maputo,1040652,-25.9653,32.5892,300.37,74,75,6.7,MZ,1609927207
189,nassau,5128316,40.7507,-73.5829,275.37,74,1,3.1,US,1609927874
190,avarua,4035715,-21.2078,-159.775,300.15,88,12,5.1,CK,1609927208
191,verkhnyaya inta,1487332,65.9811,60.3094,257.8,93,66,2.91,RU,1609927875
192,yugorsk,1502725,61.3133,63.3319,247.92,89,98,2.73,RU,1609927875
193,goure,2444219,13.9835,10.2704,307.59,9,0,4.02,NE,1609927876
194,chokurdakh,2126123,70.6333,147.9167,247.53,89,100,5.55,RU,1609927233
195,mimongo,2398430,-1.6195,11.6068,298.56,79,99,1.74,GA,1609927876
196,varadero,3534632,23.1536,-81.2514,286.15,93,20,1.5,CU,1609927876
197,bestobe,1525376,52.4994,73.0975,246.68,89,100,3.35,KZ,1609927876
198,alghero,3183284,40.5589,8.3181,280.15,87,20,1.5,IT,1609927877
199,atbasar,1526038,51.8,68.3333,250.61,89,0,3.54,KZ,1609927877
200,arraial do cabo,3471451,-22.9661,-42.0278,297.15,94,40,3.6,BR,1609927283
201,barra,3470821,-11.0894,-43.1417,297.6,64,0,2.73,BR,1609927877
202,poltavka,1494500,54.3663,71.7632,248.03,89,100,2.92,RU,1609927878
203,matata,2187175,-37.8833,176.75,292.59,94,15,1.84,NZ,1609927878
204,thompson,6165406,55.7435,-97.8558,261.15,85,90,2.6,CA,1609927878
205,aklavik,5882953,68.2191,-135.0107,245.15,75,44,0.5,CA,1609927878
206,kaitangata,2208248,-46.2817,169.8464,287.47,98,100,0.64,NZ,1609927356
207,zyryanka,2119283,65.75,150.85,241.57,85,0,3.61,RU,1609927879
208,deputatskiy,2028164,69.3,139.9,241.33,84,0,3.21,RU,1609927879
209,coquimbo,3893629,-29.9533,-71.3436,286.15,87,0,1.5,CL,1609927318
210,tuatapere,2180815,-46.1333,167.6833,291.48,93,100,0.89,NZ,1609927306
211,jieshi,1805857,22.8134,115.8257,291.48,68,100,8.33,CN,1609927881
212,kisangani,212730,0.5167,25.2,302.08,76,45,1.39,CD,1609927881
213,dire dawa,338832,9.5931,41.8661,298.42,24,0,3.65,ET,1609927881
214,enshi,1811720,30.3,109.4833,278.38,78,100,0.62,CN,1609927881
215,caconda,3351380,-13.7333,15.0667,299.22,38,0,1.67,AO,1609927882
216,itarema,3393692,-2.9248,-39.9167,300.55,71,63,6.85,BR,1609927882
217,roebourne,2062276,-20.7833,117.1333,306.58,37,6,4.81,AU,1609927882
218,mount isa,2065594,-20.7333,139.5,307.15,21,10,3.6,AU,1609927205
219,cabo san lucas,3985710,22.8909,-109.9124,287.04,59,99,1.34,MX,1609927311
220,faanui,4034551,-16.4833,-151.75,300.2,74,49,5.75,PF,1609927883
221,beloha,1067565,-25.1667,45.05,305.28,50,67,3.29,MG,1609927883
222,castelnau-le-lez,3028337,43.6333,3.9,276.15,64,0,3.1,FR,1609927883
223,berlevag,780687,70.8578,29.0864,274.15,74,0,9.8,NO,1609927884
224,waipawa,2206874,-41.4122,175.5153,292.15,82,63,8.7,NZ,1609927291
225,ahipara,2194098,-35.1667,173.1667,291.38,82,75,1.31,NZ,1609927292
226,fuyu,2037335,45.1833,124.8167,252.98,91,100,5.42,CN,1609927885
227,bilibino,2126682,68.0546,166.4372,242.51,83,100,1.84,RU,1609927303
228,vao,2137773,-22.6667,167.4833,298.73,82,79,8.77,NC,1609927885
229,souillac,933995,-20.5167,57.5167,302.15,70,40,6.7,MU,1609927310
230,qasigiannguit,3420768,68.8193,-51.1922,266.15,57,100,8.2,GL,1609927886
231,ati,2436400,13.2154,18.3353,306.98,10,0,6.34,TD,1609927886
232,lixourion,258175,38.2019,20.4314,290.15,59,40,3.1,GR,1609927887
233,hongjiang,1808106,27.11,109.9956,276.52,81,100,2.07,CN,1609927887
234,bambous virieux,1106677,-20.3428,57.7575,303.15,62,20,5.1,MU,1609927887
235,sorland,3137469,67.667,12.6934,279.15,87,40,7.7,NO,1609927321
236,touros,3386213,-5.1989,-35.4608,295.15,94,20,2.1,BR,1609927888
237,barquisimeto,3648522,10.0739,-69.3228,290.3,84,12,0.82,VE,1609927869
238,rafraf,2467813,37.1904,10.1837,284.15,50,40,1.5,TN,1609927888
239,itapeva,3460723,-23.9822,-48.8756,294.39,90,100,1.13,BR,1609927888
240,sokolo,2450849,14.7328,-6.1219,302.56,13,5,5.7,ML,1609927889
241,west bay,3580477,19.3667,-81.4167,298.15,70,27,4.02,KY,1609927542
242,port augusta,2063056,-32.5,137.7667,293.71,68,0,10.8,AU,1609927448
243,auki,2109701,-8.7676,160.7034,299.45,75,83,2.38,SB,1609927889
244,westport,4845585,41.1415,-73.3579,274.82,74,90,2.1,US,1609927637
245,vila franca do campo,3372472,37.7167,-25.4333,286.15,62,40,8.2,PT,1609927890
246,la macarena,3827693,2.1837,-73.7849,293.48,81,100,1.02,CO,1609927890
247,birao,240210,10.2849,22.7882,306.82,11,0,5.55,CF,1609927890
248,tsabong,932987,-26.0217,22.401,301.76,42,42,3.26,BW,1609927891
249,carupano,3646382,10.6678,-63.2585,296.54,86,21,1.36,VE,1609927891
250,nouadhibou,2377457,20.931,-17.0347,292.15,88,83,2.6,MR,1609927641
251,alpena,4984075,45.0617,-83.4327,274.15,97,90,1.5,US,1609927867
252,leningradskiy,2123814,69.3833,178.4167,250.38,88,100,4.01,RU,1609927298
253,pangkalanbuun,1632694,-2.6833,111.6167,299.98,90,100,1.63,ID,1609927892
254,lazaro cardenas,4026082,17.9583,-102.2,294.67,84,0,1.81,MX,1609927355
255,demerval lobao,3401106,-5.3583,-42.6764,297.15,88,90,0.96,BR,1609927892
256,torbay,6167817,47.6666,-52.7314,277.04,100,90,2.6,CA,1609927309
257,dawson creek,5935804,55.7666,-120.2362,271.15,68,1,1.5,CA,1609927893
258,necochea,3430443,-38.5473,-58.7368,290.93,95,100,10.21,AR,1609927613
259,sao joao da barra,3448903,-21.6403,-41.0511,297.15,94,0,4.1,BR,1609927310
260,kamaishi,2112444,39.2667,141.8833,266.15,85,20,1.0,JP,1609927893
261,ambon,1651531,-3.6954,128.1814,303.15,76,99,1.79,ID,1609927893
262,beihai,1816705,21.4833,109.1,292.34,58,100,1.83,CN,1609927894
263,san quintin,3984997,30.4833,-115.95,286.23,81,0,1.73,MX,1609927354
264,magaria,2441482,12.9983,8.9099,306.09,11,0,6.73,NE,1609927894
265,narsaq,3421719,60.9167,-46.05,265.15,57,2,1.49,GL,1609927895
266,maniitsoq,3421982,65.4167,-52.9,272.62,99,100,9.82,GL,1609927895
267,charters towers,2171722,-20.1,146.2667,297.62,87,95,4.95,AU,1609927895
268,abengourou,2293549,6.7297,-3.4964,302.15,65,30,1.71,CI,1609927433
269,yellowknife,6185377,62.456,-114.3525,258.71,84,90,8.7,CA,1609927896
270,sakakah,102527,29.9697,40.2064,290.15,27,0,5.1,SA,1609927896
271,tocache,3691324,-8.1842,-76.5125,293.54,90,100,0.28,PE,1609927896
272,pevek,2122090,69.7008,170.3133,250.23,91,100,4.25,RU,1609927104
273,byron bay,2172880,-28.65,153.6167,297.15,88,75,4.1,AU,1609927477
274,tibati,2221530,6.4667,12.6333,307.03,12,2,2.03,CM,1609927897
275,basoko,219414,1.2391,23.616,303.29,61,51,1.63,CD,1609927897
276,quesnel,6115187,52.9999,-122.5029,277.15,64,1,7.2,CA,1609927897
277,bougouni,2459775,11.417,-7.479,303.16,14,0,4.18,ML,1609927897
278,hobyo,57000,5.3505,48.5268,299.74,56,99,10.32,SO,1609927898
279,kalmunai,1242110,7.4167,81.8167,301.31,74,73,3.6,LK,1609927662
280,fortuna,5563839,40.5982,-124.1573,284.82,57,1,7.7,US,1609927303
281,maningrida,2067089,-12.0667,134.2667,302.24,79,90,0.09,AU,1609927898
282,bilma,2446796,18.6853,12.9164,305.15,11,0,3.42,NE,1609927899
283,margherita,1263532,27.2833,95.6833,298.15,69,20,2.1,IN,1609927899
284,atikokan,5888001,48.7555,-91.6216,263.29,97,100,1.59,CA,1609927899
285,valdivia,3868707,-39.8142,-73.2459,280.15,100,4,1.15,CL,1609927899
286,nisia floresta,3393922,-6.0911,-35.2086,297.15,83,40,1.0,BR,1609927900
287,kaupanger,7288345,61.1845,7.2404,261.15,78,0,4.6,NO,1609927900
288,kalevala,554318,65.2,31.1667,257.46,94,49,0.93,RU,1609927900
289,tual,1623197,-5.6667,132.75,301.62,77,100,4.81,ID,1609927646
290,tessalit,2449893,20.1986,1.0114,299.68,15,0,4.63,ML,1609927344
291,ndele,237379,8.4109,20.6473,308.69,13,0,4.7,CF,1609927901
292,raga,368246,8.4596,25.678,307.29,13,0,4.13,SS,1609927901
293,torata,3927158,-17.0769,-70.8433,284.86,76,83,0.58,PE,1609927901
294,mizan teferi,330534,6.9833,35.5833,300.82,42,50,0.99,ET,1609927317
295,ancud,3899695,-41.8697,-73.8203,283.15,93,0,1.0,CL,1609927335
296,casablanca,2553604,33.5928,-7.6192,287.15,100,75,1.0,MA,1609927821
297,anadyr,2127202,64.75,177.4833,246.15,68,20,4.0,RU,1609927224
298,mbour,2248477,14.422,-16.9638,301.15,39,0,5.7,SN,1609927903
299,dingle,1714733,10.9995,122.6711,298.44,86,81,3.23,PH,1609927326
300,aden,415189,12.7794,45.0367,298.06,69,39,6.83,YE,1609927702
301,khobi,613918,42.3156,41.8987,287.15,17,0,5.1,GE,1609927903
302,santa cruz,3904906,-17.8,-63.1667,294.15,100,90,3.1,BO,1609927903
303,shingu,1847947,33.7333,135.9833,279.15,60,75,6.2,JP,1609927904
304,talara,3691582,-4.5772,-81.2719,292.95,89,100,3.5,PE,1609927904
305,nelson bay,2155562,-32.7167,152.15,295.37,83,90,5.1,AU,1609927425
306,khomeyn,127403,33.6423,50.0789,276.27,60,0,1.79,IR,1609927904
307,xinyu,1788508,27.8043,114.9334,278.7,87,100,4.74,CN,1609927905
308,lebu,3883457,-37.6167,-73.65,285.63,91,4,6.38,CL,1609927905
309,concepcion del oro,4013039,24.6333,-101.4167,279.17,58,26,0.47,MX,1609927905
310,mpanda,153176,-6.3655,31.0409,299.32,74,88,0.43,TZ,1609927906
311,baruun-urt,2032614,46.6806,113.2792,238.35,78,0,5.03,MN,1609927619
312,hay river,5972762,60.8156,-115.7999,255.15,84,99,2.1,CA,1609927906
313,maxixe,1039536,-23.8597,35.3472,305.15,70,20,8.2,MZ,1609927906
314,talnakh,1490256,69.4865,88.3972,249.15,76,90,13.0,RU,1609927906
315,kushima,1895695,31.4583,131.2333,279.15,48,75,8.7,JP,1609927610
316,cherskiy,2126199,68.75,161.3,247.21,89,100,5.81,RU,1609927907
317,taoudenni,2450173,22.6783,-3.9836,299.61,16,100,1.55,ML,1609927335
318,manokwari,1636308,-0.8667,134.0833,299.7,84,100,4.91,ID,1609927773
319,marsa matruh,352733,31.3525,27.2453,292.15,77,75,4.1,EG,1609927648
320,gualaquiza,3657661,-3.4,-78.55,288.16,88,97,0.7,EC,1609927908
321,belmonte,3470137,-15.8631,-38.8828,296.15,88,20,1.5,BR,1609927908
322,ellisras,1005768,-23.6649,27.7443,308.76,27,87,3.2,ZA,1609927908
323,port blair,1259385,11.6667,92.75,302.15,74,40,3.1,IN,1609927909
324,chippewa falls,5248511,44.9369,-91.3929,266.48,85,90,3.1,US,1609927909
325,medicine hat,6071618,50.0501,-110.6683,276.48,55,1,7.2,CA,1609927909
326,yerbogachen,2012956,61.2767,108.0108,250.71,90,100,3.8,RU,1609927909
327,ixtapa,4004293,20.7,-105.2,291.48,93,5,0.45,MX,1609927424
328,mecca,104515,21.4267,39.8261,300.96,50,0,2.83,SA,1609927653
329,simpang,1627035,-1.2667,104.0833,300.68,77,99,2.93,ID,1609927873
330,port macquarie,2152659,-31.4333,152.9167,294.15,94,75,3.1,AU,1609927089
331,kysyl-syr,2021017,63.8986,122.7617,240.45,85,100,1.51,RU,1609927911
332,aleysk,1511783,52.4926,82.7822,247.98,87,0,1.79,RU,1609927911
333,miraflores,3761194,19.2167,-98.8083,284.15,53,5,1.25,MX,1609927912
334,elat,295277,29.5581,34.9482,294.15,49,0,5.7,IL,1609927912
335,progreso,3521108,21.2833,-89.6667,292.04,84,0,3.45,MX,1609927912
336,porbandar,1259395,21.6422,69.6093,299.15,27,4,5.1,IN,1609927912
337,mocuba,1024312,-16.8392,36.9856,308.91,42,0,3.0,MZ,1609927913
338,santa fe,3836277,-31.6333,-60.7,290.93,83,0,1.79,AR,1609927913
339,edd,338345,13.9297,41.6925,303.71,44,0,6.52,ER,1609927618
340,mountain home,5601615,43.133,-115.6912,273.15,86,1,7.7,US,1609927913
341,yumen,1528998,40.2833,97.2,258.78,68,79,8.07,CN,1609927288
342,williston,5692947,48.147,-103.618,269.82,100,1,3.6,US,1609927914
343,kaeo,2189343,-35.1,173.7833,290.79,79,20,2.07,NZ,1609927914
344,caravelas,3466980,-17.7125,-39.2481,298.67,77,2,1.99,BR,1609927914
345,mustasaari,651299,63.1142,21.6822,258.15,84,0,1.0,FI,1609927915
346,tiarei,4033356,-17.5333,-149.3333,299.15,78,0,2.1,PF,1609927915
347,salalah,286621,17.0151,54.0924,301.15,18,0,6.2,OM,1609927206
348,krasnoselkup,1502073,65.7,82.4667,244.89,85,63,5.62,RU,1609927915
349,alekseyevka,582956,50.6309,38.6903,273.18,97,100,4.35,RU,1609927915
350,pisco,3932145,-13.7,-76.2167,294.15,88,0,2.1,PE,1609927330
351,rio gallegos,3838859,-51.6226,-69.2181,284.15,62,0,2.1,AR,1609927916
352,katsuura,2112309,35.1333,140.3,279.82,69,100,0.45,JP,1609927738
353,maumere,1635815,-8.6199,122.2111,299.91,83,100,2.82,ID,1609927916
354,sujiatun,2034638,41.6592,123.3392,256.15,45,90,6.0,CN,1609927917
355,todos santos,3981432,23.45,-110.2167,287.04,59,99,1.34,MX,1609927917
356,silver city,5491487,32.7701,-108.2803,274.82,66,1,2.1,US,1609927917
357,bubaque,2374583,11.2833,-15.8333,300.01,54,78,0.86,GW,1609927917
358,barsovo,1510842,61.1667,73.1667,249.15,83,0,2.0,RU,1609927918
359,klaksvik,2618795,62.2266,-6.589,280.15,100,100,9.3,FO,1609927334
360,yulara,6355222,-25.2406,130.9889,304.15,12,1,6.7,AU,1609927872
361,simao,1794209,22.7886,100.9748,293.62,57,100,1.56,CN,1609927918
362,wewak,2083537,-3.5534,143.6268,301.18,75,99,2.78,PG,1609927918
363,hambantota,1244926,6.1241,81.1185,301.15,88,75,4.1,LK,1609927608
364,codajas,3664525,-3.8367,-62.0569,295.58,98,98,0.89,BR,1609927919
365,lima,3936456,-12.0432,-77.0282,294.15,88,75,3.6,PE,1609927919
366,ilulissat,3423146,69.2167,-51.1,264.15,66,100,10.3,GL,1609927339
367,goundam,2456917,16.4145,-3.6708,300.98,14,0,5.86,ML,1609927920
368,bandarbeyla,64814,9.4942,50.8122,298.44,61,25,11.07,SO,1609927428
369,umm kaddadah,364933,13.6017,26.6876,303.43,13,0,8.71,SD,1609927435
370,olafsvik,3414079,64.8945,-23.7142,271.44,89,9,8.8,IS,1609927920
371,tutoia,3385899,-2.7619,-42.2744,299.77,78,87,5.31,BR,1609927921
372,oxford,2640729,51.7522,-1.256,275.37,93,90,5.1,GB,1609927921
373,qeshm,119374,26.9581,56.2719,297.15,9,0,8.2,IR,1609927922
374,senanga,898947,-16.1167,23.2667,304.53,51,41,0.97,ZM,1609927922
375,vestmannaeyjar,3412093,63.4427,-20.2734,275.15,64,40,9.8,IS,1609927922
376,high level,5975004,58.5169,-117.136,261.15,100,90,2.1,CA,1609927923
377,eureka,5563397,40.8021,-124.1637,284.82,87,1,2.1,US,1609927354
378,canberra,2172517,-35.2835,149.1281,288.71,77,90,6.7,AU,1609927656
379,hillsborough,5357155,37.5741,-122.3794,283.15,87,20,1.5,US,1609927924
380,san vicente,3428068,-26.6167,-54.1333,292.36,100,85,0.53,AR,1609927924
381,kununurra,2068110,-15.7667,128.7333,309.15,47,70,3.6,AU,1609927336
382,galesong,1644605,-5.3166,119.3661,301.15,74,20,2.6,ID,1609927926
383,mkushi,906221,-13.6202,29.3939,299.09,75,80,1.22,ZM,1609927926
384,kropotkin,540761,45.4375,40.5756,280.96,68,100,3.91,RU,1609927927
385,lindi,878281,-10.0,39.7167,303.15,74,75,9.3,TZ,1609927928
386,etchoropo,4006387,26.7667,-109.6667,287.87,47,55,3.25,MX,1609927928
387,vila velha,3445026,-20.3297,-40.2925,298.15,83,0,4.6,BR,1609927357
388,nabire,1634614,-3.3667,135.4833,298.77,85,100,0.81,ID,1609927873
389,verdun,2969963,49.25,5.3333,275.37,95,100,0.89,FR,1609927929
390,cockburn town,3576994,21.4612,-71.1419,297.57,57,0,0.35,TC,1609927929
391,namibe,3347019,-15.1961,12.1522,299.15,69,20,3.56,AO,1609927929
392,vestmanna,2610343,62.1564,-7.1664,280.15,100,100,9.3,FO,1609927930
393,pasighat,1260206,28.0667,95.3333,296.63,43,5,0.81,IN,1609927930
394,dimapur,1272552,25.9,93.7333,296.95,54,23,1.47,IN,1609927930
395,karratha,6620339,-20.7377,116.8463,306.67,36,0,5.39,AU,1609927678
396,pavlodar,1520240,52.3,76.95,245.15,68,0,3.0,KZ,1609927931
397,wajima,1848976,37.4,136.9,273.15,91,75,1.0,JP,1609927888
398,nemuro,2128975,43.3236,145.575,258.15,71,20,1.0,JP,1609927658
399,cidreira,3466165,-30.1811,-50.2056,296.17,91,100,3.85,BR,1609927931
400,kahului,5847411,20.8947,-156.47,295.15,73,20,4.6,US,1609927429
401,giyani,1001860,-23.3025,30.7187,311.07,28,90,1.16,ZA,1609927932
402,ayolas,3439378,-27.4,-56.9,295.84,81,53,2.65,PY,1609927932
403,safakulevo,1493268,54.9901,62.5442,253.64,91,73,2.59,RU,1609927933
404,flinders,6255012,-34.5833,150.8552,293.15,79,98,1.79,AU,1609927593
405,huarmey,3939168,-10.0681,-78.1522,294.1,81,100,2.07,PE,1609927629
406,quang ngai,1568770,15.1167,108.8,294.94,90,100,2.29,VN,1609927934
407,najran,103630,17.4924,44.1277,294.15,37,0,4.1,SA,1609927632
408,kandrian,2094746,-6.2167,149.55,298.91,85,99,3.85,PG,1609927934
409,thaton,1292288,16.9206,97.3714,303.82,48,21,2.59,MM,1609927934
410,cuamba,1047660,-14.8031,36.5372,303.22,57,80,2.05,MZ,1609927935
411,lompoc,5367788,34.6391,-120.4579,280.15,93,1,1.5,US,1609927347
412,conceicao da barra,3465769,-18.5933,-39.7322,298.21,76,27,1.98,BR,1609927349
413,harper,2276492,4.375,-7.7169,300.64,79,49,3.99,LR,1609927935
414,el fuerte,4009788,26.4189,-108.6194,291.52,31,100,0.99,MX,1609927936
415,horasan,745527,40.0458,42.1728,267.84,85,18,0.75,TR,1609927936
416,khorixas,3356213,-20.3667,14.9667,301.5,33,0,1.73,NA,1609927936
417,langxiang,2036237,46.95,128.8833,251.41,89,100,0.79,CN,1609927936
418,kalabo,915471,-14.97,22.6814,301.35,59,87,1.46,ZM,1609927937
419,barahona,3492985,18.2085,-71.1008,294.48,73,20,3.03,DO,1609927937
420,povenets,505820,62.8487,34.8262,263.53,96,89,2.47,RU,1609927937
421,turiacu,3385908,-1.6633,-45.3717,298.26,85,32,1.81,BR,1609927937
422,sai buri,1606851,6.7013,101.6168,301.15,78,40,5.1,TH,1609927938
423,solnechnyy,2016307,50.7214,136.6319,246.75,86,87,1.06,RU,1609927605
424,graulhet,3014828,43.7669,1.9894,275.37,88,90,2.1,FR,1609927938
425,altamont,5711149,42.2068,-121.7372,274.26,95,1,1.64,US,1609927938
426,pulaski,4127619,34.7668,-92.3001,275.93,86,75,2.45,US,1609927938
427,lashio,1314759,22.9333,97.75,296.81,45,89,1.2,MM,1609927939
428,san cristobal,3628473,7.7669,-72.225,289.05,80,42,0.81,VE,1609927603
429,villa rica,4228452,33.7321,-84.9191,274.26,88,17,1.79,US,1609927940
430,xuddur,49747,4.1213,43.8894,304.44,24,39,8.77,SO,1609927941
431,ruthin,2638925,53.1137,-3.3178,274.82,86,20,2.6,GB,1609927941
432,ellensburg,5793639,46.9965,-120.5479,275.15,83,90,2.6,US,1609927941
433,shakawe,933077,-18.3667,21.85,304.29,43,43,2.41,BW,1609927941
434,mattru,2409215,7.6244,-11.8332,303.0,62,46,1.17,SL,1609927942
435,yeppoon,2142316,-23.1333,150.7333,301.15,74,100,2.6,AU,1609927942
436,tumen,2034340,42.9661,129.8425,258.61,77,78,0.97,CN,1609927942
437,taraz,1516905,42.9,71.3667,262.15,78,100,2.0,KZ,1609927943
438,sorong,1626542,-0.8833,131.25,300.82,76,100,0.75,ID,1609927873
439,kieta,2094027,-6.2167,155.6333,300.95,72,100,2.2,PG,1609927625
440,pontianak,1630789,-0.0333,109.3333,302.15,79,40,4.1,ID,1609927918
441,lacey,5800112,47.0343,-122.8232,280.93,93,90,5.1,US,1609927944
442,asyut,359783,27.181,31.1837,289.15,77,0,4.1,EG,1609927944
443,komsomolskiy,1513491,40.4272,71.7189,268.15,73,75,2.1,UZ,1609927441
444,bhuban,1275818,20.8833,85.8333,305.31,22,67,0.77,IN,1609927944
445,ginir,336454,7.1333,40.7,295.39,30,0,3.75,ET,1609927944
446,vershino-darasunskiy,2013442,52.35,115.5167,242.81,80,0,2.31,RU,1609927945
447,rawson,3839307,-43.3002,-65.1023,290.55,71,0,9.3,AR,1609927945
448,ballina,2177069,-28.8667,153.5667,297.15,88,75,4.1,AU,1609927946
449,longyearbyen,2729907,78.2186,15.6401,266.15,67,75,6.7,SJ,1609927946
450,estevan,5949568,49.1334,-102.9842,263.15,92,1,3.6,CA,1609927947
451,grindavik,3416888,63.8424,-22.4338,273.15,84,75,11.8,IS,1609927596
452,bosaso,64013,11.2842,49.1816,298.15,69,0,7.7,SO,1609927947
453,antigonish,5886182,45.6169,-61.9986,274.82,93,100,1.79,CA,1609927947
454,comodoro rivadavia,3860443,-45.8667,-67.5,292.15,45,0,4.1,AR,1609927948
455,korla,1529376,41.7597,86.1469,265.62,76,100,4.38,CN,1609927634
456,houston,4699066,29.7633,-95.3633,288.15,87,75,5.1,US,1609927769
457,havelock,4470244,34.8791,-76.9013,277.15,86,1,5.7,US,1609927948
458,ofaqim,293992,31.3141,34.6203,294.26,36,0,1.34,IL,1609927948
459,fort-shevchenko,609906,44.5086,50.263,275.99,75,18,12.63,KZ,1609927949
460,impfondo,2259655,1.6381,18.0667,306.38,49,86,1.46,CG,1609927949
461,marystown,6067472,47.1666,-55.1483,278.33,96,100,5.32,CA,1609927949
462,sungairaya,1625908,0.7,108.9,300.85,79,99,3.71,ID,1609927949
463,kyshtovka,1501000,56.555,76.6271,248.73,86,0,3.07,RU,1609927950
464,hanmer springs,2190299,-42.5167,172.8167,288.99,78,100,1.84,NZ,1609927950
465,fairbanks,5861897,64.8378,-147.7164,247.15,75,20,1.0,US,1609927950
466,tveit,3133663,58.2337,8.122,269.26,92,40,3.1,NO,1609927950
467,pasni,1168312,25.2631,63.471,296.13,23,0,5.21,PK,1609927950
468,batemans bay,2176639,-35.7167,150.1833,292.04,85,53,1.34,AU,1609927951
469,saint-pierre,935214,-21.3393,55.4781,303.15,55,75,3.1,RE,1609927951
470,nishihara,1855342,26.1842,127.7558,290.15,55,75,2.6,JP,1609927182
471,falkenberg,2715573,56.9055,12.4912,273.15,96,100,6.7,SE,1609927952
472,grand-lahou,2288105,5.1367,-5.0242,301.35,77,73,4.71,CI,1609927643
473,raymond,4976361,43.9015,-70.4703,271.48,94,98,1.83,US,1609927952
474,marsh harbour,3571913,26.5412,-77.0636,293.44,54,74,4.55,BS,1609927953
475,wagar,364027,16.1525,36.2032,304.71,31,0,3.51,SD,1609927953
476,mirabad,1133310,30.4362,61.8383,282.13,44,0,8.6,AF,1609927953
477,traverse city,5012495,44.7631,-85.6206,274.26,86,90,1.96,US,1609927953
478,vardo,777019,70.3705,31.1107,269.15,79,0,13.4,NO,1609927954
479,luoyang,1801792,34.6836,112.4536,273.15,99,81,7.72,CN,1609927655
480,muroto,1856392,33.2833,134.15,278.15,44,75,2.6,JP,1609927954
481,honningsvag,779554,70.9821,25.9704,276.15,86,75,5.1,NO,1609927954
482,yandyki,469151,45.7691,47.1258,277.44,75,93,11.23,RU,1609927954
483,mackenzie,6063191,55.2999,-123.1698,274.15,86,90,5.1,CA,1609927865
484,nuuk,3421319,64.1835,-51.7216,272.15,86,100,15.4,GL,1609927955
485,iqaluit,5983720,63.7506,-68.5145,258.15,77,90,6.98,CA,1609927955
486,gat,293842,31.61,34.7642,294.26,36,1,1.34,IL,1609927955
487,grimmen,2917309,54.1121,13.0405,275.15,93,90,2.6,DE,1609927956
488,frolovo,562389,49.7713,43.6622,269.26,91,100,3.13,RU,1609927957
489,soyo,2236967,-6.1349,12.3689,302.15,74,75,2.6,AO,1609927957
490,brae,2654970,60.3964,-1.353,279.15,81,75,5.7,GB,1609927957
491,pacifica,5380420,37.6138,-122.4869,283.15,87,20,1.5,US,1609927957
492,havre-saint-pierre,5972291,50.2334,-63.5986,258.15,92,1,1.5,CA,1609927645
493,hofn,2630299,64.2539,-15.2082,273.15,84,0,8.7,IS,1609927958
494,cody,5821593,44.5263,-109.0565,273.15,80,1,5.1,US,1609927958
495,fukue,1863997,32.6881,128.8419,277.15,86,75,1.5,JP,1609927869
496,bayugan,1725684,8.7561,125.7675,297.12,93,100,0.63,PH,1609927958
497,agnibilekrou,2293260,7.1344,-3.2047,302.66,60,19,1.87,CI,1609927959
498,manavalakurichi,1263942,8.1333,77.3,304.15,79,75,1.29,IN,1609927960
499,sur,286245,22.5667,59.5289,295.71,39,0,7.72,OM,1609927960
500,mezen,527321,65.8522,44.24,259.16,95,98,2.54,RU,1609927960
501,metro,1635283,-5.1131,105.3067,301.86,77,100,1.88,ID,1609927614
502,kaka,161901,37.3482,59.6143,274.26,87,100,1.91,TM,1609927960
503,chengde,2038087,40.9725,117.9361,251.58,57,72,8.77,CN,1609927866
504,butag,1722247,12.6292,123.9335,299.26,84,74,5.07,PH,1609927961
505,bembereke,2395182,10.2283,2.6634,305.45,12,0,3.33,BJ,1609927961
506,san policarpo,1688696,12.1791,125.5072,299.96,84,81,5.23,PH,1609927961
507,shenjiamen,1795632,29.9576,122.298,278.87,66,100,6.02,CN,1609927962
508,mpika,905846,-11.8343,31.4529,297.71,78,99,0.63,ZM,1609927962
509,okha,2122614,53.5739,142.9478,248.2,86,100,9.03,RU,1609927962
510,khani,610864,41.9563,42.9566,287.15,17,0,5.1,GE,1609927962
511,srivardhan,1255619,18.0333,73.0167,301.17,58,0,6.13,IN,1609927963
512,laguna,5364271,38.421,-121.4238,277.59,93,1,1.2,US,1609927599
513,naze,1855540,28.3667,129.4833,286.15,76,75,4.1,JP,1609927864
514,grahamstown,1000501,-33.3042,26.5328,298.15,80,69,2.24,ZA,1609927963
515,farmington,5467328,36.7281,-108.2187,269.15,58,1,3.6,US,1609927929
516,watertown,4954611,42.3709,-71.1828,273.15,86,90,2.6,US,1609927964
517,pacific grove,5380437,36.6177,-121.9166,281.48,87,1,2.58,US,1609927965
518,mandalgovi,2030065,45.7625,106.2708,247.13,80,79,5.65,MN,1609927965
519,bacolod,1729564,10.6667,122.95,299.59,79,79,4.68,PH,1609927965
520,ferrol,3123493,43.4832,-8.2369,274.82,100,20,1.0,ES,1609927965
521,shakiso,328716,5.75,38.9167,299.45,27,98,2.07,ET,1609927966
522,cabra,2520645,37.4725,-4.4421,280.37,84,100,1.73,ES,1609927966
523,kavaratti,1267390,10.5669,72.642,301.44,71,77,3.97,IN,1609927966
524,vostok,2013279,46.4856,135.8833,249.87,91,100,0.79,RU,1609927966
525,dhidhdhoo,1337612,6.8833,73.1,299.63,76,100,4.05,MV,1609927698
526,guane,3557758,22.2025,-84.0875,289.08,72,100,2.29,CU,1609927967
527,soldotna,5874678,60.4878,-151.0583,269.26,85,20,4.1,US,1609927967
528,whitehorse,6180550,60.7161,-135.0538,270.15,86,90,9.8,CA,1609927967
529,talcahuano,3870282,-36.7167,-73.1167,285.15,87,0,3.6,CL,1609927967
530,provost,6113828,52.3501,-110.2683,266.15,92,56,4.1,CA,1609927968
531,chapais,5919850,49.7834,-74.8492,264.15,85,90,2.1,CA,1609927435
532,xichang,1789647,27.8964,102.2634,289.82,33,100,1.31,CN,1609927969
533,springbok,3361142,-29.6643,17.8865,299.5,17,0,2.67,ZA,1609927969
534,brownsville,4676740,25.9018,-97.4975,292.59,84,93,1.34,US,1609927969
535,hudson bay,5978133,52.85,-102.3842,265.28,96,80,3.53,CA,1609927969
536,jizan,105298,17.3333,42.6667,302.15,66,40,4.1,SA,1609927970
537,bridlington,2654728,54.0831,-0.1919,277.04,84,97,5.14,GB,1609927970
538,taunsa,1163724,30.7048,70.6505,293.19,35,0,2.31,PK,1609927971
539,tilichiki,2120591,60.4667,166.1,245.44,87,1,4.01,RU,1609927971
540,biak,1637001,-0.9131,122.8766,298.06,85,97,2.42,ID,1609927971
541,old saybrook,4840035,41.2918,-72.3762,275.93,80,90,3.1,US,1609927971
542,cooma,2170577,-36.2333,149.1333,287.15,71,90,3.6,AU,1609927972
543,iracoubo,3381428,5.4802,-53.2011,298.64,87,82,3.48,GF,1609927972
544,likasi,922741,-10.9814,26.7333,297.63,81,87,1.65,CD,1609927972
545,pangnirtung,6096551,66.1451,-65.7125,260.31,90,100,0.35,CA,1609927973
546,monywa,1308522,22.1167,95.1333,302.05,41,53,1.33,MM,1609927973
547,lorengau,2092164,-2.0226,147.2712,301.74,75,100,3.98,PG,1609927429
548,vanimo,2084442,-2.6741,141.3028,300.05,79,95,1.29,PG,1609927974
549,dori,2361082,14.0354,-0.0345,304.45,13,0,6.74,BF,1609927974
550,terrace bay,6162951,48.7834,-87.1,270.15,92,87,3.1,CA,1609927974
551,buraydah,107304,26.326,43.975,291.15,68,75,4.1,SA,1609927640
552,zhezkazgan,1516589,47.8043,67.7144,255.15,89,0,2.1,KZ,1609927975
553,rosario,3838583,-32.9468,-60.6393,292.59,77,90,8.2,AR,1609927975
554,sisimiut,3419842,66.9395,-53.6735,268.2,96,100,7.45,GL,1609927976
555,praia,3374333,14.9215,-23.5087,298.15,31,0,3.6,CV,1609927976
556,abeche,245785,13.8292,20.8324,306.15,10,0,7.2,TD,1609927976
557,severnoye,1492607,56.3491,78.3619,248.34,87,0,3.23,RU,1609927977
558,ewa beach,5855051,21.3156,-158.0072,296.15,73,20,5.03,US,1609927977
559,havoysund,779622,70.9963,24.6622,276.15,86,75,5.1,NO,1609927977
560,leshukonskoye,535839,64.8989,45.7622,258.84,95,78,2.02,RU,1609927977
561,buchanan,2278158,5.8808,-10.0467,299.15,94,40,3.1,LR,1609927978
562,opuwo,3354077,-18.0607,13.84,301.47,31,11,2.14,NA,1609927978
563,richards bay,962367,-28.783,32.0377,300.51,66,84,8.26,ZA,1609927978
564,sohag,347796,26.557,31.6948,293.15,56,0,3.1,EG,1609927979
565,cap-aux-meules,5915327,47.3821,-61.8597,274.15,92,100,8.7,CA,1609927979
566,merauke,2082539,-8.4667,140.3333,301.98,78,100,3.71,ID,1609927980
567,iquique,3887127,-20.2208,-70.1431,293.15,64,0,1.06,CL,1609927980
568,rottweil,2843636,48.1678,8.6272,273.71,88,100,0.96,DE,1609927980
569,oskemen,1520316,49.9565,82.6119,244.15,75,17,2.0,KZ,1609927980
570,kirovskiy,2022064,45.0917,133.5136,252.47,91,100,0.55,RU,1609927981
571,boyolangu,1648082,-8.1181,111.8935,300.76,79,60,2.32,ID,1609927981
572,boguchany,1509844,58.3814,97.4531,256.81,91,100,2.86,RU,1609927981
573,sawakin,367544,19.1059,37.3321,300.37,66,37,5.4,SD,1609927981
574,bulgan,2032201,48.8125,103.5347,249.18,81,100,1.76,MN,1609927981
575,antofagasta,3899539,-23.65,-70.4,291.15,88,40,2.6,CL,1609927982
576,clyde river,5924351,70.4692,-68.5914,243.15,74,90,1.5,CA,1609927983
577,madang,2091996,-5.2246,145.7966,300.4,80,99,1.34,PG,1609927983
578,tianpeng,1792916,30.9866,103.9393,282.04,1,100,0.45,CN,1609927983
579,petauke,899825,-14.2426,31.3253,301.04,63,23,2.19,ZM,1609927983
580,itoman,1861280,26.1247,127.6694,290.15,67,75,5.7,JP,1609927984
581,oistins,3373652,13.0667,-59.5333,297.15,94,75,7.7,BB,1609927984
582,kargasok,1504382,59.0556,80.8572,243.99,83,0,1.2,RU,1609927984
583,turbat,1163054,26.0023,63.044,295.45,16,0,9.64,PK,1609927984
584,gizo,2108857,-8.103,156.8419,302.0,71,100,2.76,SB,1609927985
585,srikakulam,1255647,18.3,83.9,300.79,48,43,4.3,IN,1609927985
586,cobija,3919998,-11.0267,-68.7692,294.8,98,100,1.16,BO,1609927985
587,fort nelson,5955902,58.8053,-122.7002,254.15,77,90,2.6,CA,1609927352
588,swellendam,950709,-34.0226,20.4417,296.15,60,23,4.6,ZA,1609927986
589,sioux lookout,6148373,50.1001,-91.917,268.15,92,90,2.1,CA,1609927649
590,marzuq,72181,14.4,46.4667,295.29,22,0,4.45,YE,1609927986
591,ginda,1253628,30.6945,78.4932,286.49,48,48,1.58,IN,1609927986
592,mahenge,155274,-8.6833,36.7167,294.42,98,99,1.63,TZ,1609927987
593,abu dhabi,292968,24.4667,54.3667,297.15,41,20,2.6,AE,1609927987
