,City Name,City ID,Lat,Lon,Max Temp,Humidity,Cloudiness,Wind speed,Country,Date
0,albany,5106841,42.6001,-73.9662,271.48,56,100,0.89,US,10/01/2021
1,arraial do cabo,3471451,-22.9661,-42.0278,298.28,92,4,5.88,BR,10/01/2021
2,bowen,2174444,-20.0167,148.2333,296.15,94,90,2.57,AU,10/01/2021
3,hasaki,2112802,35.7333,140.8333,268.15,79,20,2.06,JP,10/01/2021
4,mataura,6201424,-46.1927,168.8643,290.55,57,91,4.41,NZ,10/01/2021
5,khani,610864,41.9563,42.9566,276.15,65,0,3.09,GE,10/01/2021
6,bredasdorp,1015776,-34.5322,20.0403,291.15,88,56,2.57,ZA,10/01/2021
7,esperance,2071860,-33.8667,121.9,298.15,38,100,8.23,AU,10/01/2021
8,butaritari,2110227,3.0707,172.7902,300.83,80,74,8.89,KI,10/01/2021
9,hilo,5855927,19.7297,-155.09,300.15,61,75,3.09,US,10/01/2021
10,puerto ayora,3652764,-0.7393,-90.3518,300.15,69,0,96.2,EC,10/01/2021
11,ushuaia,3833367,-54.8,-68.3,285.15,54,75,3.09,AR,10/01/2021
12,atuona,4020109,-9.8,-139.0333,298.66,78,97,7.88,PF,10/01/2021
13,victoria,1819729,22.2855,114.1577,284.82,39,100,0.45,HK,10/01/2021
14,cherskiy,2126199,68.75,161.3,240.38,86,96,1.55,RU,10/01/2021
15,margate,2643044,51.3813,1.3862,275.37,86,6,0.45,GB,10/01/2021
16,ribeira grande,3372707,38.5167,-28.7,287.9,67,98,6.6,PT,10/01/2021
17,paamiut,3421193,61.994,-49.6678,272.79,99,100,0.3,GL,10/01/2021
18,cape town,3369157,-33.9258,18.4232,293.15,77,75,2.57,ZA,10/01/2021
19,westport,4845585,41.1415,-73.3579,274.82,47,90,3.6,US,10/01/2021
20,hithadhoo,1282256,-0.6,73.0833,300.22,75,100,4.76,MV,10/01/2021
21,srednekolymsk,2121025,67.45,153.6833,239.4,84,86,2.38,RU,10/01/2021
22,muborak,1216475,39.2553,65.1528,271.22,82,0,2.93,UZ,10/01/2021
23,chipinge,893549,-20.1883,32.6236,290.61,89,98,1.5,ZW,10/01/2021
24,tuktoyaktuk,6170031,69.4541,-133.0374,256.15,85,75,8.23,CA,10/01/2021
25,les herbiers,3000648,46.8667,-1.0167,273.15,86,20,5.66,FR,10/01/2021
26,sorland,3137469,67.667,12.6934,274.4,87,100,11.6,NO,10/01/2021
27,sibu,1735902,2.3,111.8167,297.15,94,40,0.92,MY,10/01/2021
28,luvianos,3997000,18.9167,-100.4,297.15,38,12,2.46,MX,10/01/2021
29,qaanaaq,3831208,77.484,-69.3632,254.01,76,2,1.7,GL,10/01/2021
30,half moon bay,5354943,37.4636,-122.4286,289.82,76,1,6.17,US,10/01/2021
31,tazovskiy,1489853,67.4667,78.7,242.65,87,9,4.19,RU,10/01/2021
32,kodiak,5866583,57.79,-152.4072,275.15,87,90,11.83,US,10/01/2021
33,severo-kurilsk,2121385,50.6789,156.125,267.3,88,92,5.26,RU,10/01/2021
34,kota tinggi,1732738,1.7381,103.8999,297.15,94,40,2.57,MY,10/01/2021
35,santa lucia,2511150,27.9117,-15.5407,288.15,63,20,3.6,ES,10/01/2021
36,busselton,2075265,-33.65,115.3333,293.15,81,94,1.34,AU,10/01/2021
37,rikitea,4030556,-23.1203,-134.9692,299.1,75,100,5.69,PF,10/01/2021
38,leningradskiy,2123814,69.3833,178.4167,243.55,84,52,2.19,RU,10/01/2021
39,sicamous,6147353,50.8331,-118.9856,276.15,75,92,1.54,CA,10/01/2021
40,nome,5870133,64.5011,-165.4064,252.15,71,1,6.69,US,10/01/2021
41,punta arenas,3874787,-53.15,-70.9167,283.15,76,75,5.14,CL,10/01/2021
42,upernavik,3418910,72.7868,-56.1549,261.17,81,30,4.68,GL,10/01/2021
43,hobart,2163355,-42.8794,147.3294,294.26,63,20,1.54,AU,10/01/2021
44,saint-philippe,935215,-21.3585,55.7679,296.15,78,0,2.06,RE,10/01/2021
45,lasa,3175096,46.6166,10.7002,267.04,67,0,3.09,IT,10/01/2021
46,georgetown,1735106,5.4112,100.3354,299.26,78,20,2.06,MY,10/01/2021
47,port alfred,964432,-33.5906,26.891,294.82,89,14,2.68,ZA,10/01/2021
48,katsuura,2112309,35.1333,140.3,274.15,60,20,2.57,JP,10/01/2021
49,sile,739636,41.1754,29.6133,283.71,93,75,5.66,TR,10/01/2021
50,lompoc,5367788,34.6391,-120.4579,294.15,26,1,5.66,US,10/01/2021
51,vanimo,2084442,-2.6741,141.3028,300.04,84,100,1.36,PG,10/01/2021
52,kapaa,5848280,22.0752,-159.319,298.15,69,75,3.09,US,10/01/2021
53,ponta do sol,2264557,32.6667,-17.1,284.82,72,37,1.34,PT,10/01/2021
54,cidreira,3466165,-30.1811,-50.2056,298.46,81,16,6.13,BR,10/01/2021
55,jamestown,5122534,42.097,-79.2353,272.15,59,1,4.12,US,10/01/2021
56,bethanien,3358416,-26.502,17.1583,296.0,39,39,4.87,NA,10/01/2021
57,bluff,2206939,-46.6,168.3333,286.79,84,100,8.95,NZ,10/01/2021
58,tasiilaq,3424607,65.6145,-37.6368,265.15,49,50,3.09,GL,10/01/2021
59,talnakh,1490256,69.4865,88.3972,241.9,81,20,1.04,RU,10/01/2021
60,new norfolk,2155415,-42.7826,147.0587,294.26,42,13,0.45,AU,10/01/2021
61,longyearbyen,2729907,78.2186,15.6401,272.15,69,20,8.75,SJ,10/01/2021
62,taitung,6949678,22.7583,121.1444,285.15,62,75,3.09,TW,10/01/2021
63,avarua,4035715,-21.2078,-159.775,302.15,65,75,2.57,CK,10/01/2021
64,padang,1633419,-0.9492,100.3543,298.38,79,100,2.13,ID,10/01/2021
65,dingle,1714733,10.9995,122.6711,297.01,91,100,5.56,PH,10/01/2021
66,trofors,3133983,65.5333,13.4063,273.15,80,90,9.77,NO,10/01/2021
67,kidal,2455290,18.4411,1.4078,298.12,17,0,4.5,ML,10/01/2021
68,chuy,3443061,-33.6971,-53.4616,292.84,68,97,5.0,UY,10/01/2021
69,barcelos,2742416,41.5388,-8.6151,279.15,65,0,4.63,PT,10/01/2021
70,pajapan,3522186,18.25,-94.7,297.15,60,40,4.12,MX,10/01/2021
71,beloha,1067565,-25.1667,45.05,297.93,82,0,3.26,MG,10/01/2021
72,suileng,2034651,47.25,127.0833,245.77,87,0,2.11,CN,10/01/2021
73,lavrentiya,4031637,65.5833,-171.0,248.44,85,0,1.98,RU,10/01/2021
74,barrow,5880054,71.2906,-156.7887,259.15,78,90,3.09,US,10/01/2021
75,anton lizardo,3532821,19.05,-95.9833,295.93,73,90,2.06,MX,10/01/2021
76,ombessa,2235194,4.603,11.2565,294.9,92,40,1.8,CM,10/01/2021
77,axim,2303611,4.8699,-2.2405,299.43,86,80,3.68,GH,10/01/2021
78,pitimbu,3391889,-7.4706,-34.8086,300.15,74,0,4.12,BR,10/01/2021
79,san quintin,3984997,30.4833,-115.95,290.75,59,0,4.66,MX,10/01/2021
80,naze,1855540,28.3667,129.4833,283.15,71,75,4.12,JP,10/01/2021
81,yagodnoye,2119626,62.55,149.6667,241.79,83,100,0.57,RU,10/01/2021
82,antofagasta,3899539,-23.65,-70.4,293.15,77,75,7.2,CL,10/01/2021
83,koumac,2140558,-20.5667,164.2833,302.2,74,100,3.74,NC,10/01/2021
84,andros town,3572906,24.7,-77.7667,292.15,63,75,5.14,BS,10/01/2021
85,vaini,4032243,-21.2,-175.2,301.15,89,75,3.6,TO,10/01/2021
86,tuatapere,2180815,-46.1333,167.6833,286.8,77,98,3.21,NZ,10/01/2021
87,sao sepe,3448207,-30.1606,-53.5653,304.15,58,75,0.51,BR,10/01/2021
88,isla aguada,3526766,18.7833,-91.4667,296.15,60,40,5.14,MX,10/01/2021
89,loanda,2240449,-8.8368,13.2343,298.15,83,20,2.06,AO,10/01/2021
90,pilna,509538,55.5539,45.9219,269.88,98,100,4.34,RU,10/01/2021
91,sitka,5557293,57.0531,-135.33,280.15,57,90,11.83,US,10/01/2021
92,lavumisa,935051,-27.31,31.892,293.04,92,1,1.46,SZ,10/01/2021
93,lebu,3883457,-37.6167,-73.65,288.27,71,0,3.09,CL,10/01/2021
94,ixtapa,4004293,20.7,-105.2,297.15,73,75,5.14,MX,10/01/2021
95,nushki,1168749,29.5542,66.0215,273.38,80,0,0.38,PK,10/01/2021
96,bengkulu,1649150,-3.8004,102.2655,297.75,81,100,0.95,ID,10/01/2021
97,hobyo,57000,5.3505,48.5268,296.88,70,0,9.7,SO,10/01/2021
98,vitim,2013375,59.4511,112.5578,251.67,89,100,3.3,RU,10/01/2021
99,ciudad bolivar,3645532,8.1222,-63.5497,299.77,73,53,4.99,VE,10/01/2021
100,port blair,1259385,11.6667,92.75,299.57,81,22,5.09,IN,10/01/2021
101,marsa matruh,352733,31.3525,27.2453,286.15,88,0,1.03,EG,10/01/2021
102,nueva loja,3655185,0.0847,-76.8828,297.15,100,75,1.03,EC,10/01/2021
103,harper,2276492,4.375,-7.7169,298.95,87,12,3.34,LR,10/01/2021
104,pangnirtung,6096551,66.1451,-65.7125,259.44,75,100,0.25,CA,10/01/2021
105,ewa beach,5855051,21.3156,-158.0072,301.15,57,1,3.09,US,10/01/2021
106,broome,5110365,42.2506,-75.833,271.15,69,1,5.14,US,10/01/2021
107,nipawin,6088469,53.3668,-104.0009,266.15,79,1,5.14,CA,10/01/2021
108,te anau,2181625,-45.4167,167.7167,285.2,86,100,2.24,NZ,10/01/2021
109,rawah,92004,34.4816,41.9093,281.21,48,67,0.51,IQ,10/01/2021
110,valparaiso,3868626,-33.0393,-71.6273,293.15,52,0,6.17,CL,10/01/2021
111,guerrero negro,4021858,27.9769,-114.0611,291.67,59,0,7.88,MX,10/01/2021
112,tinos,252854,37.5375,25.1634,291.15,82,92,5.14,GR,10/01/2021
113,shimoda,1852357,34.6667,138.95,272.59,62,0,0.45,JP,10/01/2021
114,pacific grove,5380437,36.6177,-121.9166,289.82,47,1,2.57,US,10/01/2021
115,sri aman,1735799,1.2376,111.4621,297.15,100,100,0.23,MY,10/01/2021
116,tahe,2034615,52.3333,124.7333,249.41,86,61,2.06,CN,10/01/2021
117,havre-saint-pierre,5972291,50.2334,-63.5986,270.15,68,75,3.6,CA,10/01/2021
118,yellowknife,6185377,62.456,-114.3525,262.15,92,20,2.57,CA,10/01/2021
119,gat,293842,31.61,34.7642,288.71,67,0,1.54,IL,10/01/2021
120,marawi,1701054,7.9986,124.2928,297.04,91,87,2.68,PH,10/01/2021
121,saurimo,145531,-9.6608,20.3916,290.39,98,22,1.54,AO,10/01/2021
122,koslan,544084,63.4564,48.8989,255.38,93,100,3.07,RU,10/01/2021
123,klaksvik,2618795,62.2266,-6.589,274.15,60,40,9.77,FO,10/01/2021
124,castro,3466704,-24.7911,-50.0119,292.54,96,99,3.33,BR,10/01/2021
125,malanje,2239862,-9.5402,16.341,288.12,97,1,1.4,AO,10/01/2021
126,fairbanks,5861897,64.8378,-147.7164,262.15,79,90,2.57,US,10/01/2021
127,awbari,2219235,26.5921,12.7805,292.78,25,0,5.59,LY,10/01/2021
128,suntar,2015913,62.1444,117.6319,238.47,83,93,2.07,RU,10/01/2021
129,manzhouli,2035836,49.6,117.4333,253.17,87,0,6.25,CN,10/01/2021
130,erdenet,2031405,49.0333,104.0833,250.11,84,99,2.07,MN,10/01/2021
131,nikolskoye,546105,59.7035,30.7861,259.82,78,0,2.0,RU,10/01/2021
132,egvekinot,4031742,66.3167,-179.1667,243.92,85,46,4.17,RU,10/01/2021
133,havre,3013633,49.5833,0.3333,274.15,86,0,2.57,FR,10/01/2021
134,maldonado,3441890,-34.6667,-54.9167,293.71,73,0,6.69,UY,10/01/2021
135,san ramon,5392593,37.7799,-121.978,290.37,27,1,1.25,US,10/01/2021
136,chara,2025630,56.9064,118.2631,248.97,75,96,1.71,RU,10/01/2021
137,salalah,286621,17.0151,54.0924,293.15,28,0,4.12,OM,10/01/2021
138,san cristobal,3628473,7.7669,-72.225,301.15,65,40,2.06,VE,10/01/2021
139,sola,2134814,-13.8833,167.55,301.18,68,100,0.96,VU,10/01/2021
140,bambous virieux,1106677,-20.3428,57.7575,299.15,89,40,2.06,MU,10/01/2021
141,loikaw,1313479,19.6742,97.2094,289.2,92,24,0.73,MM,10/01/2021
142,tondano,1623424,1.3038,124.9112,297.15,94,20,0.51,ID,10/01/2021
143,ormond beach,4167178,29.2858,-81.0559,283.15,66,40,4.12,US,10/01/2021
144,tiksi,2015306,71.6872,128.8694,245.38,88,100,3.46,RU,10/01/2021
145,kaitangata,2208248,-46.2817,169.8464,292.04,56,70,4.02,NZ,10/01/2021
146,senador jose porfirio,3387928,-2.5908,-51.9542,298.22,88,100,1.16,BR,10/01/2021
147,mitchell,5229794,43.7094,-98.0298,274.15,86,90,2.57,US,10/01/2021
148,asau,686090,46.4333,26.4,272.15,100,100,0.51,RO,10/01/2021
149,lorengau,2092164,-2.0226,147.2712,302.06,61,100,1.33,PG,10/01/2021
150,tra vinh,1563926,9.9347,106.3453,294.62,86,49,2.07,VN,10/01/2021
151,archdale,4452871,35.9146,-79.972,279.26,57,0,0.45,US,10/01/2021
152,hermanus,3366880,-34.4187,19.2345,291.48,92,92,5.21,ZA,10/01/2021
153,waingapu,1622318,-9.6567,120.2641,300.61,75,83,0.92,ID,10/01/2021
154,chokurdakh,2126123,70.6333,147.9167,241.51,87,100,1.22,RU,10/01/2021
155,nouadhibou,2377457,20.931,-17.0347,291.15,63,0,7.72,MR,10/01/2021
156,port hardy,6111862,50.6996,-127.4199,279.15,87,90,13.89,CA,10/01/2021
157,natal,3394023,-5.795,-35.2094,300.15,74,20,4.12,BR,10/01/2021
158,ketchikan,5554428,55.3422,-131.6461,277.15,87,90,7.2,US,10/01/2021
159,nebug,523048,44.1714,39.0036,284.29,81,100,1.87,RU,10/01/2021
160,port-cartier,6111696,50.0334,-66.8654,271.15,50,16,4.63,CA,10/01/2021
161,porosozero,506232,62.7191,32.727,251.15,91,46,1.21,RU,10/01/2021
162,nanakuli,5851349,21.3906,-158.1547,300.93,57,1,3.09,US,10/01/2021
163,east london,1006984,-33.0153,27.9116,296.82,76,8,8.0,ZA,10/01/2021
164,saldanha,3361934,-33.0117,17.9442,292.15,77,0,1.54,ZA,10/01/2021
165,urusha,2014078,54.05,122.9,250.23,87,100,1.3,RU,10/01/2021
166,kavaratti,1267390,10.5669,72.642,301.11,75,100,3.86,IN,10/01/2021
167,sobolevo,525426,54.4299,31.8996,263.89,97,100,2.52,RU,10/01/2021
168,vysokogornyy,2013216,50.1167,139.15,240.23,83,98,1.41,RU,10/01/2021
169,taoudenni,2450173,22.6783,-3.9836,295.23,40,81,5.98,ML,10/01/2021
170,bandarbeyla,64814,9.4942,50.8122,295.63,73,25,9.84,SO,10/01/2021
171,fortuna,5563839,40.5982,-124.1573,289.26,58,1,1.63,US,10/01/2021
172,carson city,5501344,39.1638,-119.7674,280.15,36,1,4.12,US,10/01/2021
173,maba,1801615,24.6841,113.5984,278.22,53,95,1.4,CN,10/01/2021
174,southend-on-sea,2637433,51.5378,0.7143,273.15,100,0,2.06,GB,10/01/2021
175,carutapera,3402648,-1.195,-46.02,299.39,81,64,3.87,BR,10/01/2021
176,pevek,2122090,69.7008,170.3133,242.4,88,65,1.9,RU,10/01/2021
177,corrente,3409644,-3.7367,-43.3394,297.72,85,89,2.49,BR,10/01/2021
178,khatanga,2022572,71.9667,102.5,238.08,85,67,0.94,RU,10/01/2021
179,la libertad,3655131,-2.2333,-80.9,301.15,69,40,4.12,EC,10/01/2021
180,goure,2444219,13.9835,10.2704,294.71,22,0,3.8,NE,10/01/2021
181,russell,4047434,32.3502,-85.1999,277.15,65,90,5.14,US,10/01/2021
182,sotnikovo,2016205,51.8845,107.4791,251.15,84,97,1.0,RU,10/01/2021
183,mar del plata,3430863,-38.0023,-57.5575,294.15,73,0,8.23,AR,10/01/2021
184,vicosa,3445133,-20.7539,-42.8819,298.15,73,100,2.36,BR,10/01/2021
185,urumqi,1529102,43.801,87.6005,255.15,85,35,1.0,CN,10/01/2021
186,uppsala,2666218,60.0,17.75,271.48,100,90,3.6,SE,10/01/2021
187,kuloy,539385,61.0305,42.4925,254.83,93,97,2.0,RU,10/01/2021
188,guia de isora,2516860,28.2115,-16.7795,288.15,63,40,3.6,ES,10/01/2021
189,zomba,923295,-15.386,35.3188,293.57,93,100,1.05,MW,10/01/2021
190,komsomolskiy,1513491,40.4272,71.7189,266.15,79,0,2.06,UZ,10/01/2021
191,denpasar,1645528,-8.65,115.2167,299.15,94,20,2.63,ID,10/01/2021
192,vestmannaeyjar,3412093,63.4427,-20.2734,270.18,89,62,0.85,IS,10/01/2021
193,coahuayana,4013679,18.7333,-103.6833,298.15,61,75,5.14,MX,10/01/2021
194,bethel,5282297,41.3712,-73.414,273.15,37,90,5.66,US,10/01/2021
195,conceicao do araguaia,3401845,-8.2578,-49.2647,299.21,77,100,1.77,BR,10/01/2021
196,college,5859699,64.8569,-147.8028,262.15,79,90,2.57,US,10/01/2021
197,hailar,2037078,49.2,119.7,247.39,88,3,2.91,CN,10/01/2021
198,kahului,5847411,20.8947,-156.47,300.15,65,40,5.66,US,10/01/2021
199,mareeba,2158767,-17.0,145.4333,302.59,70,100,2.57,AU,10/01/2021
200,guilin,1809498,25.2819,110.2864,278.15,42,90,1.0,CN,10/01/2021
201,narsaq,3421719,60.9167,-46.05,279.15,39,75,10.8,GL,10/01/2021
202,sao filipe,3374210,14.8961,-24.4956,295.31,75,14,8.3,CV,10/01/2021
203,north bend,5742974,43.4065,-124.2243,286.15,62,1,3.09,US,10/01/2021
204,pilar,3392126,-9.5972,-35.9567,299.15,83,0,5.14,BR,10/01/2021
205,shahpur,1256722,16.7,76.8333,293.35,80,65,2.67,IN,10/01/2021
206,coquimbo,3893629,-29.9533,-71.3436,290.15,72,40,4.12,CL,10/01/2021
207,port elizabeth,964420,-33.918,25.5701,294.15,88,0,8.23,ZA,10/01/2021
208,elizabeth city,4465088,36.2946,-76.2511,279.15,49,1,4.12,US,10/01/2021
209,mwinilunga,902620,-11.7358,24.4293,290.45,96,100,1.97,ZM,10/01/2021
210,jacareacanga,3397763,-6.2222,-57.7528,297.96,91,100,1.01,BR,10/01/2021
211,high level,5975004,58.5169,-117.136,264.15,100,20,1.54,CA,10/01/2021
212,lagoa,3372964,39.05,-27.9833,286.85,60,100,2.88,PT,10/01/2021
213,ilo,3938415,-17.6394,-71.3375,294.72,76,38,2.68,PE,10/01/2021
214,posse,3452599,-14.0931,-46.3694,296.69,76,41,0.79,BR,10/01/2021
215,wilmington,4499379,34.2257,-77.9447,282.15,46,1,4.12,US,10/01/2021
216,northam,2641434,51.0333,-4.2167,274.82,91,1,0.45,GB,10/01/2021
217,ancud,3899695,-41.8697,-73.8203,288.15,82,90,8.23,CL,10/01/2021
218,aksarka,1512019,66.5606,67.7975,247.87,89,98,6.77,RU,10/01/2021
219,cartagena,3687238,10.3997,-75.5144,299.15,100,40,2.06,CO,10/01/2021
220,shingu,1847947,33.7333,135.9833,273.13,91,4,3.38,JP,10/01/2021
221,vagay,1487860,57.9375,69.0217,254.61,93,98,2.76,RU,10/01/2021
222,hongjiang,1808106,27.11,109.9956,274.02,83,87,0.83,CN,10/01/2021
223,torbay,6167817,47.6666,-52.7314,274.26,80,40,8.23,CA,10/01/2021
224,bayir,304183,37.2687,28.2167,289.15,77,40,2.06,TR,10/01/2021
225,sabzevar,118063,36.2126,57.6819,273.19,66,0,0.58,IR,10/01/2021
226,omsukchan,2122493,62.5333,155.8,242.08,82,91,1.68,RU,10/01/2021
227,port lincoln,2063036,-34.7333,135.8667,299.14,42,40,5.13,AU,10/01/2021
228,wawa,2319078,9.9022,4.4192,298.65,20,0,1.54,NG,10/01/2021
229,namwala,901766,-15.7504,26.4384,292.83,95,100,1.1,ZM,10/01/2021
230,vardo,777019,70.3705,31.1107,267.27,94,100,7.1,NO,10/01/2021
231,nanortalik,3421765,60.1432,-45.2371,271.82,91,100,3.42,GL,10/01/2021
232,mashpee,4943297,41.6484,-70.4811,274.26,80,90,5.66,US,10/01/2021
233,buchanan,2278158,5.8808,-10.0467,299.19,86,98,2.61,LR,10/01/2021
234,dubbo,2168305,-32.25,148.6167,295.15,64,0,5.14,AU,10/01/2021
235,bougouni,2459775,11.417,-7.479,299.34,18,0,0.96,ML,10/01/2021
236,royan,2982343,45.6285,-1.0281,275.15,69,0,8.75,FR,10/01/2021
237,belaya gora,2126785,68.5333,146.4167,244.49,87,100,1.88,RU,10/01/2021
238,kavieng,2094342,-2.5744,150.7967,302.15,73,100,4.77,PG,10/01/2021
239,san carlos,3628503,9.6612,-68.5827,298.26,73,45,0.92,VE,10/01/2021
240,myaundzha,2123100,63.0494,147.1858,237.88,81,55,0.87,RU,10/01/2021
241,niksar,741304,40.5917,36.9517,283.64,48,85,3.9,TR,10/01/2021
242,tignere,2221513,7.3667,12.65,291.81,27,76,0.86,CM,10/01/2021
243,vartej,1253381,21.7333,72.0667,292.74,65,0,4.17,IN,10/01/2021
244,getulio vargas,3440791,-32.6796,-53.5494,292.89,83,88,4.7,UY,10/01/2021
245,khelyulya,550366,61.7333,30.6833,257.94,93,88,2.54,RU,10/01/2021
246,khudumelapye,933633,-23.8833,24.75,297.44,55,0,1.64,BW,10/01/2021
247,povenets,505820,62.8487,34.8262,252.43,92,61,1.69,RU,10/01/2021
248,marzuq,72181,14.4,46.4667,284.3,44,6,1.51,YE,10/01/2021
249,jumla,1283285,29.2747,82.1838,275.83,53,87,1.49,NP,10/01/2021
250,kirakira,2178753,-10.4544,161.9205,302.44,72,98,2.26,SB,10/01/2021
251,tessalit,2449893,20.1986,1.0114,295.21,20,0,3.08,ML,10/01/2021
252,englehart,5948844,47.8169,-79.8664,265.15,86,90,2.06,CA,10/01/2021
253,luba,2309528,3.4568,8.5547,299.15,100,20,2.57,GQ,10/01/2021
254,ngunguru,2186111,-35.6167,174.5,297.59,68,18,0.45,NZ,10/01/2021
255,howard springs,6301965,-12.497,131.047,299.82,89,75,1.03,AU,10/01/2021
256,zig,5053853,40.127,-92.7663,270.15,74,90,2.06,US,10/01/2021
257,oranjemund,3354071,-28.55,16.4333,290.15,85,0,5.89,NA,10/01/2021
258,provideniya,4031574,64.3833,-173.3,251.47,83,0,3.02,RU,10/01/2021
259,marienburg,3092472,54.0359,19.0266,272.59,100,99,0.92,PL,10/01/2021
260,njeru,227812,0.4186,33.1731,292.53,89,94,2.3,UG,10/01/2021
261,haines junction,5969025,60.7522,-137.5108,267.15,86,100,1.07,CA,10/01/2021
262,wysokie mazowieckie,754479,52.9166,22.5171,272.04,91,75,1.81,PL,10/01/2021
263,hovd,1516048,48.0056,91.6419,252.39,77,0,0.61,MN,10/01/2021
264,lethem,3379316,3.3803,-59.7968,299.5,79,97,0.83,GY,10/01/2021
265,tuy hoa,1563281,13.0833,109.3,294.38,86,87,5.97,VN,10/01/2021
266,mandalgovi,2030065,45.7625,106.2708,254.74,81,100,1.26,MN,10/01/2021
267,puerto suarez,3444199,-18.95,-57.8,303.92,50,65,1.29,BO,10/01/2021
268,skibbereen,2961459,51.55,-9.2667,273.15,69,20,1.54,IE,10/01/2021
269,hofn,2630299,64.2539,-15.2082,267.96,80,0,5.08,IS,10/01/2021
270,geraldton,2070998,-28.7667,114.6,296.15,83,75,6.17,AU,10/01/2021
271,swan river,6160362,52.1058,-101.2676,267.15,79,1,6.69,CA,10/01/2021
272,dikson,1507390,73.5069,80.5464,252.18,87,100,4.51,RU,10/01/2021
273,lamu,189741,-2.2717,40.902,299.15,78,20,2.06,KE,10/01/2021
274,jalu,86049,29.0331,21.5482,291.13,39,0,3.38,LY,10/01/2021
275,junin,3853354,-34.5838,-60.9433,304.82,13,0,2.76,AR,10/01/2021
276,saskylakh,2017155,71.9167,114.0833,241.0,85,100,3.93,RU,10/01/2021
277,vao,2137773,-22.6667,167.4833,298.88,88,100,7.24,NC,10/01/2021
278,elk point,5227567,42.6833,-96.6836,271.15,93,90,1.54,US,10/01/2021
279,berlevag,780687,70.8578,29.0864,264.43,93,29,7.12,NO,10/01/2021
280,nuuk,3421319,64.1835,-51.7216,271.15,64,75,3.59,GL,10/01/2021
281,henties bay,3356832,-22.116,14.2845,293.15,83,88,2.05,NA,10/01/2021
282,qaqortoq,3420846,60.7167,-46.0333,279.15,39,75,10.8,GL,10/01/2021
283,cockburn town,3576994,21.4612,-71.1419,299.15,72,25,2.14,TC,10/01/2021
284,krasnoye,704277,49.9145,24.6134,273.15,93,75,4.0,UA,10/01/2021
285,dhidhdhoo,1337612,6.8833,73.1,300.95,75,91,4.45,MV,10/01/2021
286,flin flon,5954718,54.7682,-101.865,263.15,85,1,3.09,CA,10/01/2021
287,bourail,2141714,-21.5667,165.4833,300.23,81,100,2.36,NC,10/01/2021
288,khuzdar,7082481,27.7384,66.6434,277.83,55,0,1.48,PK,10/01/2021
289,bilma,2446796,18.6853,12.9164,292.11,26,0,1.15,NE,10/01/2021
290,sambava,1056899,-14.2667,50.1667,297.29,85,0,2.35,MG,10/01/2021
291,sinnamary,3380290,5.3833,-52.95,298.58,87,100,5.74,GF,10/01/2021
292,hualmay,3939761,-11.0964,-77.6139,295.92,76,60,4.65,PE,10/01/2021
293,karagaylinskiy,1504590,54.172,86.5521,257.8,89,100,4.4,RU,10/01/2021
294,springfield,4409896,37.2153,-93.2982,273.15,69,90,2.06,US,10/01/2021
295,rucar,668542,45.4,25.1667,272.04,88,100,1.34,RO,10/01/2021
296,yuli,2317982,9.6989,10.2744,296.82,20,94,2.87,NG,10/01/2021
297,khandyga,2022773,62.6667,135.6,237.08,83,100,0.46,RU,10/01/2021
298,takoradi,2294915,4.8845,-1.7554,299.37,87,96,4.09,GH,10/01/2021
299,stony plain,6157536,53.5334,-114.0021,273.15,68,1,1.41,CA,10/01/2021
300,charters towers,2171722,-20.1,146.2667,296.37,83,99,6.03,AU,10/01/2021
301,caramay,1718517,10.1815,119.236,299.03,80,74,6.2,PH,10/01/2021
302,rio grande,3451138,-32.035,-52.0986,296.02,83,91,7.25,BR,10/01/2021
303,busayra,249842,30.7376,35.6078,283.16,65,33,2.95,JO,10/01/2021
304,tigil,2120612,57.8,158.6667,255.88,91,100,0.88,RU,10/01/2021
305,quesnel,6115187,52.9999,-122.5029,270.15,93,1,2.06,CA,10/01/2021
306,zhigansk,2012530,66.7697,123.3711,239.57,84,100,1.6,RU,10/01/2021
307,sakaiminato,1853174,35.55,133.2333,272.15,93,75,3.6,JP,10/01/2021
308,ivanteyevka,555111,55.9711,37.9208,267.15,86,90,4.0,RU,10/01/2021
309,diffa,2445704,13.3154,12.6113,295.15,31,0,4.65,NE,10/01/2021
310,chase,5920381,50.8165,-119.6857,276.15,75,97,1.54,CA,10/01/2021
311,bay roberts,5895424,47.5999,-53.2648,274.26,43,85,6.95,CA,10/01/2021
312,bambanglipuro,1650434,-7.95,110.2833,298.26,87,93,1.3,ID,10/01/2021
313,mahebourg,934322,-20.4081,57.7,299.15,89,40,2.06,MU,10/01/2021
314,el alto,3697441,-4.2714,-81.2147,299.15,73,0,4.12,PE,10/01/2021
315,praia da vitoria,3372760,38.7333,-27.0667,286.48,76,20,3.05,PT,10/01/2021
316,porto novo,2392087,6.4965,2.6036,300.15,94,20,4.63,BJ,10/01/2021
317,tautira,4033557,-17.7333,-149.15,303.15,66,75,5.66,PF,10/01/2021
318,richards bay,962367,-28.783,32.0377,295.67,79,1,4.73,ZA,10/01/2021
319,huilong,1806840,31.8111,121.655,272.59,63,81,2.98,CN,10/01/2021
320,alofi,4036284,-19.0595,-169.9187,303.15,62,32,6.69,NU,10/01/2021
321,kungurtug,1501377,50.5994,97.5228,244.15,80,45,0.3,RU,10/01/2021
322,pavino,512247,59.1139,46.1414,260.26,95,97,3.17,RU,10/01/2021
323,fasa,134721,28.9383,53.6482,271.15,37,0,2.06,IR,10/01/2021
324,samarai,2132606,-10.6167,150.6667,302.32,72,100,3.97,PG,10/01/2021
325,burgeo,5911440,47.6167,-57.6152,276.16,93,98,1.02,CA,10/01/2021
326,odweyne,53372,9.4092,45.064,290.82,39,5,6.93,SO,10/01/2021
327,taksimo,2015701,56.3444,114.8794,251.89,82,97,1.28,RU,10/01/2021
328,san jose,5392171,37.3394,-121.895,290.93,36,40,2.06,US,10/01/2021
329,aklavik,5882953,68.2191,-135.0107,253.15,84,20,0.82,CA,10/01/2021
330,hay river,5972762,60.8156,-115.7999,271.15,64,0,3.6,CA,10/01/2021
331,pereira barreto,3454131,-20.6383,-51.1092,301.06,57,3,3.46,BR,10/01/2021
332,ambon,1651531,-3.6954,128.1814,299.15,94,40,4.12,ID,10/01/2021
333,huarmey,3939168,-10.0681,-78.1522,295.79,76,45,4.22,PE,10/01/2021
334,susanville,5572400,40.4163,-120.653,277.59,56,1,1.54,US,10/01/2021
335,pisco,3932145,-13.7,-76.2167,297.15,73,0,11.32,PE,10/01/2021
336,bella vista,4101114,36.4295,-94.2316,276.15,60,1,3.6,US,10/01/2021
337,sfantu gheorghe,667303,45.8667,25.7833,269.26,92,100,5.36,RO,10/01/2021
338,itarema,3393692,-2.9248,-39.9167,299.74,77,39,6.18,BR,10/01/2021
339,sidney,2147714,-33.8679,151.2073,297.59,60,20,3.09,AU,10/01/2021
340,punta alta,3839982,-38.8759,-62.0736,301.81,28,16,6.35,AR,10/01/2021
341,mazatlan,3996322,23.2167,-106.4167,297.15,69,40,3.6,MX,10/01/2021
342,vostok,2013279,46.4856,135.8833,246.53,87,100,1.56,RU,10/01/2021
343,mehamn,778707,71.0357,27.8492,264.67,92,34,6.88,NO,10/01/2021
344,kununurra,2068110,-15.7667,128.7333,302.15,94,0,2.06,AU,10/01/2021
345,issa,555798,53.8705,44.8578,271.36,99,100,2.97,RU,10/01/2021
346,kalmar,2702261,56.6616,16.3616,274.26,100,90,0.51,SE,10/01/2021
347,iquique,3887127,-20.2208,-70.1431,296.15,60,0,8.75,CL,10/01/2021
348,carnarvon,2074865,-24.8667,113.6333,300.15,78,68,6.69,AU,10/01/2021
349,ahipara,2194098,-35.1667,173.1667,294.77,72,38,2.98,NZ,10/01/2021
350,santa maria,3450083,-29.6842,-53.8069,304.15,58,75,0.51,BR,10/01/2021
351,byron bay,2172880,-28.65,153.6167,298.15,68,90,3.09,AU,10/01/2021
352,boyolangu,1648082,-8.1181,111.8935,297.44,86,100,0.24,ID,10/01/2021
353,sisimiut,3419842,66.9395,-53.6735,267.33,88,100,4.29,GL,10/01/2021
354,ola,2122574,59.5833,151.2833,256.4,93,100,4.78,RU,10/01/2021
355,faanui,4034551,-16.4833,-151.75,300.56,70,1,5.55,PF,10/01/2021
356,isangel,2136825,-19.55,169.2667,303.15,79,75,1.54,VU,10/01/2021
357,yulara,6355222,-25.2406,130.9889,300.15,21,0,4.12,AU,10/01/2021
358,rawson,3839307,-43.3002,-65.1023,298.67,18,38,11.94,AR,10/01/2021
359,tezu,1254709,27.9167,96.1667,290.21,39,68,0.99,IN,10/01/2021
360,gandu,3462601,-13.7439,-39.4867,295.94,93,65,1.04,BR,10/01/2021
361,bundaberg,2173323,-24.85,152.35,297.59,88,90,5.14,AU,10/01/2021
362,havelock,4470244,34.8791,-76.9013,279.26,55,0,2.65,US,10/01/2021
363,thompson,6165406,55.7435,-97.8558,259.15,92,20,1.54,CA,10/01/2021
364,gamboma,2259947,-1.8764,15.8644,296.06,80,0,2.06,CG,10/01/2021
365,okhotsk,2122605,59.3833,143.3,248.81,86,91,4.53,RU,10/01/2021
366,hojai,1269993,26.0,92.8667,288.13,80,1,1.43,IN,10/01/2021
367,teknaf,1185095,20.8624,92.3058,292.08,63,21,1.49,BD,10/01/2021
368,arman,2127060,59.7,150.1667,255.49,91,100,4.55,RU,10/01/2021
369,kozhva,543246,65.1073,57.0459,250.64,91,5,0.95,RU,10/01/2021
370,roma,5134295,43.2128,-75.4557,270.93,59,1,3.6,US,10/01/2021
371,mikkeli,646005,61.6886,27.2723,263.44,96,97,0.85,FI,10/01/2021
372,catuday,1717787,16.2923,119.8062,295.95,74,4,5.74,PH,10/01/2021
373,paro,1252490,27.4305,89.4133,277.85,68,77,0.65,BT,10/01/2021
374,ucluelet,6171633,48.9329,-125.5528,281.15,53,90,6.69,CA,10/01/2021
375,anadyr,2127202,64.75,177.4833,239.26,68,20,4.0,RU,10/01/2021
376,buguda,1275132,19.8167,84.8,291.84,77,11,0.85,IN,10/01/2021
377,nayoro,2128983,44.3506,142.4578,262.57,93,100,2.88,JP,10/01/2021
378,paysandu,3441243,-32.3214,-58.0756,302.59,41,65,2.14,UY,10/01/2021
379,korsakovo,544440,53.2677,37.3569,267.71,98,100,3.43,RU,10/01/2021
380,zvecka,783768,44.6389,20.1647,272.15,100,75,2.57,RS,10/01/2021
381,arkhangelskoye,580993,55.8549,35.3287,260.16,96,94,3.37,RU,10/01/2021
382,slave lake,6149374,55.2834,-114.769,266.15,68,1,1.36,CA,10/01/2021
383,bilibino,2126682,68.0546,166.4372,240.84,83,14,0.4,RU,10/01/2021
384,porto nacional,3452711,-10.7081,-48.4172,297.15,83,40,3.6,BR,10/01/2021
385,luderitz,3355672,-26.6481,15.1594,294.84,48,64,11.38,NA,10/01/2021
386,kalmunai,1242110,7.4167,81.8167,296.72,93,100,4.36,LK,10/01/2021
387,baniyas,171830,35.1819,35.9487,288.9,40,18,3.34,SY,10/01/2021
388,lithakia,258241,37.7167,20.8333,290.15,82,98,1.54,GR,10/01/2021
389,kautokeino,779330,69.0125,23.0412,257.71,93,98,6.31,NO,10/01/2021
390,honningsvag,779554,70.9821,25.9704,268.68,91,4,11.31,NO,10/01/2021
391,namioka,2129005,40.7072,140.5894,267.59,86,75,5.66,JP,10/01/2021
392,elko,5703673,41.0002,-115.5012,274.15,55,90,3.09,US,10/01/2021
393,keelung,1678228,25.1283,121.7419,285.15,62,75,5.14,TW,10/01/2021
394,pampa,5527953,35.5362,-100.9599,277.15,70,40,4.63,US,10/01/2021
395,berdigestyakh,2026861,62.0989,126.6992,237.7,83,100,1.53,RU,10/01/2021
396,taua,3386568,-5.9667,-40.3,301.83,45,71,4.4,BR,10/01/2021
397,plettenberg bay,964712,-34.0527,23.3716,292.74,78,33,3.49,ZA,10/01/2021
398,peace river,6100069,56.2501,-117.286,269.15,63,20,4.12,CA,10/01/2021
399,hit,95788,33.6416,42.8251,282.62,45,34,1.47,IQ,10/01/2021
400,puro,1692364,12.4841,123.3827,297.92,86,100,9.35,PH,10/01/2021
401,vila franca do campo,3372472,37.7167,-25.4333,285.15,58,40,2.57,PT,10/01/2021
402,yanam,1252795,16.7333,82.2167,293.27,93,51,1.87,IN,10/01/2021
403,morgan city,4333811,29.6994,-91.2068,283.15,46,1,3.6,US,10/01/2021
404,angoram,2100765,-4.0625,144.0661,301.77,77,100,0.85,PG,10/01/2021
405,zandvoort,2744042,52.3749,4.5341,274.26,93,20,1.03,NL,10/01/2021
406,pingliang,1798760,35.5392,106.6861,263.87,61,76,1.55,CN,10/01/2021
407,airai,1651810,-8.9266,125.4092,292.03,100,100,0.45,TL,10/01/2021
408,nueva guinea,3617459,11.6876,-84.4562,296.98,87,38,3.87,NI,10/01/2021
409,baruun-urt,2032614,46.6806,113.2792,250.91,86,0,4.14,MN,10/01/2021
410,birin,1283334,26.8865,88.0718,281.08,81,100,1.64,NP,10/01/2021
411,lakatoro,2136697,-16.0999,167.4164,302.76,67,81,1.4,VU,10/01/2021
412,lubango,3347762,-14.9172,13.4925,287.3,79,86,1.39,AO,10/01/2021
413,san patricio,4726521,28.017,-97.5169,287.15,71,90,5.14,US,10/01/2021
414,golkoy,746628,40.6875,37.6178,288.15,44,0,1.03,TR,10/01/2021
415,los banos,1705539,14.1667,121.1833,298.15,69,75,1.03,PH,10/01/2021
416,shwebo,1296736,22.5667,95.7,291.77,72,15,1.39,MM,10/01/2021
417,ostrovnoy,556268,68.0531,39.5131,258.9,92,91,4.66,RU,10/01/2021
418,boden,606531,65.8252,21.6886,270.15,100,90,6.69,SE,10/01/2021
419,provost,6113828,52.3501,-110.2683,267.15,100,33,1.54,CA,10/01/2021
420,zhuanghe,1784055,39.7008,122.9911,261.48,56,75,1.75,CN,10/01/2021
421,la solana,2515284,38.9442,-3.2381,272.59,98,0,1.53,ES,10/01/2021
422,chany,1508458,55.3121,76.7647,258.73,95,100,6.24,RU,10/01/2021
423,dayong,1789289,25.0209,118.2898,280.15,49,0,3.0,CN,10/01/2021
424,batagay-alyta,2027042,67.8006,130.4114,242.64,84,100,1.42,RU,10/01/2021
425,alice springs,2077895,-23.7,133.8833,300.15,29,0,1.03,AU,10/01/2021
426,guanica,4565090,17.9716,-66.908,299.26,74,98,2.8,PR,10/01/2021
427,itaituba,3397967,-4.2761,-55.9836,297.67,93,100,0.85,BR,10/01/2021
428,calbuco,3897334,-41.768,-73.1273,286.15,82,90,8.23,CL,10/01/2021
429,verkh-usugli,2013459,52.7,115.1667,252.14,86,85,1.13,RU,10/01/2021
430,whitehorse,6180550,60.7161,-135.0538,269.15,80,75,7.72,CA,10/01/2021
431,kabalo,215668,-6.05,26.9167,292.77,96,92,0.49,CD,10/01/2021
432,sao joao da barra,3448903,-21.6403,-41.0511,298.39,89,35,5.75,BR,10/01/2021
433,brae,2654970,60.3964,-1.353,276.15,75,40,9.77,GB,10/01/2021
434,grindavik,3416888,63.8424,-22.4338,269.15,100,75,1.54,IS,10/01/2021
435,iqaluit,5983720,63.7506,-68.5145,261.15,85,90,2.57,CA,10/01/2021
436,tilichiki,2120591,60.4667,166.1,245.58,86,20,5.45,RU,10/01/2021
437,veraval,1253237,20.9,70.3667,294.39,54,0,6.22,IN,10/01/2021
438,hare bay,5970873,48.8499,-54.0148,273.15,100,100,2.57,CA,10/01/2021
439,poroshkovo,696478,48.6683,22.7533,271.48,91,27,0.28,UA,10/01/2021
440,ati,2436400,13.2154,18.3353,296.02,20,19,4.87,TD,10/01/2021
441,coolum beach,2170581,-26.5333,153.1,294.82,96,93,0.89,AU,10/01/2021
442,nelson bay,2155562,-32.7167,152.15,297.04,78,90,2.06,AU,10/01/2021
443,irbil,95446,36.1926,44.0106,276.15,48,0,2.06,IQ,10/01/2021
444,touros,3386213,-5.1989,-35.4608,300.15,74,0,5.14,BR,10/01/2021
445,yaan,2338660,7.3833,8.5667,299.73,17,3,0.38,NG,10/01/2021
446,neiafu,4032420,-18.65,-173.9833,302.15,74,40,5.14,TO,10/01/2021
447,kendallville,4922252,41.4414,-85.265,273.15,80,1,1.98,US,10/01/2021
448,olafsvik,3414079,64.8945,-23.7142,271.43,91,94,5.63,IS,10/01/2021
449,whitianga,2179103,-36.8333,175.7,296.25,59,8,2.35,NZ,10/01/2021
450,port hedland,2063042,-20.3167,118.5667,302.15,74,80,2.57,AU,10/01/2021
451,ranong,1150965,9.9658,98.6348,296.54,85,91,2.59,TH,10/01/2021
452,atherton,2656847,53.5237,-2.4935,274.26,83,70,2.11,GB,10/01/2021
453,gijon,3121424,43.5357,-5.6615,278.71,89,100,0.45,ES,10/01/2021
454,oltu,741160,40.5498,42.0013,272.57,83,40,2.59,TR,10/01/2021
455,taltal,3870243,-25.4,-70.4833,293.75,65,22,3.3,CL,10/01/2021
456,poum,2138555,-20.2333,164.0167,300.3,86,100,6.71,NC,10/01/2021
457,tulungagung,1623080,-8.0657,111.9025,297.33,87,100,0.45,ID,10/01/2021
458,kutum,371745,14.2,24.6667,287.01,34,0,4.45,SD,10/01/2021
459,gastello,2125626,49.1167,142.9667,251.37,85,100,1.91,RU,10/01/2021
460,husavik,2629833,66.0449,-17.3389,267.15,73,90,0.51,IS,10/01/2021
461,tadine,2138285,-21.55,167.8833,299.85,85,100,4.34,NC,10/01/2021
462,aleksandrov gay,583345,50.147,48.5704,275.68,99,100,8.58,RU,10/01/2021
463,irtyshskiy,1505495,58.3333,68.1333,249.82,90,96,3.34,RU,10/01/2021
464,baker city,5712169,44.7749,-117.8344,277.15,70,75,4.63,US,10/01/2021
465,fuling,1810979,29.7022,107.3919,277.59,73,86,0.53,CN,10/01/2021
466,pasighat,1260206,28.0667,95.3333,290.37,48,83,0.62,IN,10/01/2021
467,altay,1529651,47.8667,88.1167,251.9,70,3,1.2,CN,10/01/2021
468,melenki,527740,55.3343,41.6295,265.71,97,100,3.45,RU,10/01/2021
469,adrar,2381972,20.5022,-10.0711,290.03,43,23,5.27,MR,10/01/2021
470,pangkalanbuun,1632694,-2.6833,111.6167,296.85,96,95,0.93,ID,10/01/2021
471,cravo norte,3685702,6.3017,-70.2041,299.43,76,55,2.07,CO,10/01/2021
472,bogalusa,4317412,30.791,-89.8487,282.15,49,1,4.12,US,10/01/2021
473,ilulissat,3423146,69.2167,-51.1,267.15,45,75,7.2,GL,10/01/2021
474,puerto del rosario,2512186,28.5004,-13.8627,288.15,58,20,5.14,ES,10/01/2021
475,humberto de campos,3398428,-2.5983,-43.4611,299.1,80,89,3.15,BR,10/01/2021
476,zatyshshya,687562,47.3335,29.8733,272.37,93,62,2.61,UA,10/01/2021
477,conde,3385077,-7.2597,-34.9075,300.15,74,0,4.12,BR,10/01/2021
478,batsfjord,780717,70.6345,29.7185,262.68,92,54,4.94,NO,10/01/2021
479,biloela,2175819,-24.4167,150.5,295.59,72,98,7.67,AU,10/01/2021
480,kruisfontein,986717,-34.0033,24.7314,293.71,82,40,1.79,ZA,10/01/2021
481,port augusta,2063056,-32.5,137.7667,303.71,57,0,1.54,AU,10/01/2021
482,norman wells,6089245,65.282,-126.8329,258.15,85,20,3.09,CA,10/01/2021
483,nosy varika,1058080,-20.5833,48.5333,296.94,83,91,1.2,MG,10/01/2021
484,bereda,3105522,43.2686,-7.5406,277.04,98,100,10.28,ES,10/01/2021
485,dharur,1272819,18.8167,76.1167,294.04,54,67,4.37,IN,10/01/2021
486,juneau,5554072,58.3019,-134.4197,278.15,56,90,5.66,US,10/01/2021
487,takahagi,2110893,36.7167,140.7167,271.48,67,0,0.45,JP,10/01/2021
488,cabedelo,3404558,-6.9811,-34.8339,300.15,74,0,4.12,BR,10/01/2021
489,borzya,2026126,50.3833,116.5167,250.37,88,0,2.33,RU,10/01/2021
490,sakakah,102527,29.9697,40.2064,286.15,44,40,2.06,SA,10/01/2021
491,pringsewu,1630639,-5.3582,104.9744,295.36,94,100,0.9,ID,10/01/2021
492,karratha,6620339,-20.7377,116.8463,307.1,37,43,5.37,AU,10/01/2021
493,covington,4288809,39.0837,-84.5086,274.15,60,1,2.06,US,10/01/2021
494,lepe,2515072,37.2548,-7.2043,277.59,79,76,2.68,ES,10/01/2021
495,jinchang,1805733,38.4953,102.1739,262.51,82,93,4.46,CN,10/01/2021
496,balingasay,1728091,16.3573,119.8564,297.11,72,8,5.95,PH,10/01/2021
497,plainview,5131638,40.7765,-73.4673,274.82,47,90,5.66,US,10/01/2021
498,codrington,2171099,-38.2667,141.9667,294.39,57,3,3.29,AU,10/01/2021
499,da nang,1583992,16.0678,108.2208,291.15,72,75,0.51,VN,10/01/2021
500,shizunai,2128025,42.3339,142.3669,266.13,89,97,4.5,JP,10/01/2021
501,vaitape,4033077,-16.5167,-151.75,300.57,70,0,5.56,PF,10/01/2021
502,auki,2109701,-8.7676,160.7034,302.39,69,100,1.4,SB,10/01/2021
503,lewistown,5197850,40.5992,-77.5714,277.15,52,1,2.57,US,10/01/2021
504,barra patuca,3614835,15.8,-84.2833,297.3,85,26,4.12,HN,10/01/2021
505,kirovskiy,2022064,45.0917,133.5136,250.07,90,100,1.62,RU,10/01/2021
506,port-gentil,2396518,-0.7193,8.7815,300.15,89,40,3.6,GA,10/01/2021
507,vikhorevka,2013399,56.1201,101.1636,252.59,77,100,3.0,RU,10/01/2021
508,nikolayevsk-na-amure,2122850,53.1406,140.73,245.48,85,98,1.7,RU,10/01/2021
509,tutoia,3385899,-2.7619,-42.2744,300.62,75,64,6.42,BR,10/01/2021
510,klamath falls,5735238,42.2249,-121.7817,274.26,80,75,2.06,US,10/01/2021
511,port hawkesbury,6111867,45.6169,-61.3485,272.59,93,90,4.12,CA,10/01/2021
512,tukrah,88834,32.5341,20.5791,293.42,42,0,3.97,LY,10/01/2021
513,spassk-ryazanskiy,489741,54.4072,40.3806,270.18,99,100,0.6,RU,10/01/2021
514,kaeo,2189343,-35.1,173.7833,297.59,68,62,0.45,NZ,10/01/2021
515,tres arroyos,3833859,-38.3739,-60.2798,293.93,55,22,4.82,AR,10/01/2021
516,maraa,3663475,-1.8333,-65.3667,295.7,98,76,0.54,BR,10/01/2021
517,teya,1489656,60.3778,92.6267,249.15,87,100,1.86,RU,10/01/2021
518,cabo san lucas,3985710,22.8909,-109.9124,297.59,49,1,5.14,MX,10/01/2021
519,kokoda,2093691,-8.8785,147.7407,299.8,67,100,0.68,PG,10/01/2021
520,acapulco,3533462,16.8634,-99.8901,302.15,70,40,3.09,MX,10/01/2021
521,starodubskoye,488847,44.5631,44.0153,279.27,63,33,1.61,RU,10/01/2021
522,saint george,5546220,37.1041,-113.5841,285.15,28,1,6.69,US,10/01/2021
523,paka,1734313,4.6374,103.4368,296.15,100,100,2.06,MY,10/01/2021
524,celestun,3531368,20.8667,-90.4,293.69,65,98,5.12,MX,10/01/2021
525,loukhi,533964,66.0764,33.0381,255.49,94,92,0.27,RU,10/01/2021
526,poltar,3058083,48.4309,19.7941,268.15,54,0,0.89,SK,10/01/2021
527,camacha,2270385,33.0833,-16.3333,287.15,67,40,10.8,PT,10/01/2021
528,wiset chai chan,1621034,14.5989,100.3617,294.26,62,2,1.79,TH,10/01/2021
529,inhambane,1045114,-23.865,35.3833,296.56,85,7,2.93,MZ,10/01/2021
530,necochea,3430443,-38.5473,-58.7368,298.15,57,0,4.53,AR,10/01/2021
531,ratnagiri,1258338,16.9833,73.3,298.2,83,100,2.22,IN,10/01/2021
532,kihei,5849297,20.785,-156.4656,300.15,65,40,5.66,US,10/01/2021
533,arlit,2447513,18.7369,7.3853,295.09,20,0,2.36,NE,10/01/2021
534,praia,3374333,14.9215,-23.5087,295.15,68,40,11.32,CV,10/01/2021
535,la paz,3911925,-16.5,-68.15,283.15,81,75,3.6,BO,10/01/2021
536,aitape,2101169,-3.1374,142.3475,300.93,78,100,1.33,PG,10/01/2021
537,dillon,4576653,34.4166,-79.3712,280.93,57,1,2.06,US,10/01/2021
538,forssa,659935,60.8146,23.6215,263.71,89,81,0.45,FI,10/01/2021
539,wajir,178443,1.7471,40.0573,300.31,31,0,4.72,KE,10/01/2021
540,turukhansk,1488903,65.8167,87.9833,250.3,90,96,1.94,RU,10/01/2021
541,lancaster,5197085,40.2504,-76.2499,279.15,39,1,5.66,US,10/01/2021
542,nago,1856068,26.5881,127.9761,286.15,76,75,4.63,JP,10/01/2021
543,coos bay,5720495,43.3665,-124.2179,286.15,62,1,3.09,US,10/01/2021
544,sonneberg,2831250,50.35,11.1667,271.48,97,22,3.13,DE,10/01/2021
545,los llanos de aridane,2514651,28.6585,-17.9182,289.15,59,20,6.69,ES,10/01/2021
546,yeppoon,2142316,-23.1333,150.7333,298.15,69,90,6.17,AU,10/01/2021
547,souillac,933995,-20.5167,57.5167,299.15,89,40,2.06,MU,10/01/2021
548,launceston,2160517,-41.45,147.1667,292.15,72,40,1.54,AU,10/01/2021
549,verkhnyaya toyma,474470,62.2349,44.9985,260.96,95,90,2.43,RU,10/01/2021
550,flinders,6255012,-34.5833,150.8552,296.48,74,0,0.45,AU,10/01/2021
551,mana,3381041,5.6592,-53.7767,298.23,88,100,5.53,GF,10/01/2021
552,setermoen,3139765,68.861,18.3486,262.15,67,35,1.03,NO,10/01/2021
553,verkhnevilyuysk,2013639,63.4453,120.3167,240.57,85,100,2.56,RU,10/01/2021
554,tianpeng,1792916,30.9866,103.9393,275.37,1,90,0.73,CN,10/01/2021
555,kasempa,912628,-13.4584,25.8338,291.46,95,100,2.05,ZM,10/01/2021
556,general artigas,3438080,-26.9333,-56.2167,300.15,69,75,0.99,PY,10/01/2021
557,izumo,1861084,35.3667,132.7667,272.15,93,75,6.17,JP,10/01/2021
558,tomatlan,3981391,19.9333,-105.25,300.64,54,5,3.63,MX,10/01/2021
559,figeac,3018505,44.75,1.9167,272.59,76,90,4.47,FR,10/01/2021
560,acarau,3408368,-2.8856,-40.12,299.87,77,57,7.06,BR,10/01/2021
561,bushehr,139817,28.9684,50.8385,290.23,52,0,4.16,IR,10/01/2021
562,aykhal,2027296,66.0,111.5,239.85,83,99,3.22,RU,10/01/2021
563,yerbogachen,2012956,61.2767,108.0108,248.31,89,100,0.69,RU,10/01/2021
564,bukama,217834,-9.2,25.85,293.17,95,98,0.31,CD,10/01/2021
565,impfondo,2259655,1.6381,18.0667,296.59,71,83,1.51,CG,10/01/2021
566,nurobod,1513064,40.9056,69.8023,266.15,86,0,3.09,UZ,10/01/2021
567,kuala terengganu,1734705,5.3302,103.1408,299.15,83,40,3.09,MY,10/01/2021
568,nola,6541905,40.922,14.5329,283.15,81,75,3.6,IT,10/01/2021
569,lagos,2332453,6.5833,3.75,298.93,86,0,1.25,NG,10/01/2021
570,beruwala,1249931,6.4788,79.9828,296.62,92,100,2.9,LK,10/01/2021
571,mossendjo,2256895,-2.9506,12.7261,293.9,99,62,0.88,CG,10/01/2021
572,rajec,3057910,49.089,18.6401,273.15,93,90,0.51,SK,10/01/2021
573,manadhoo,1337618,5.7667,73.3833,300.8,72,84,2.88,MV,10/01/2021
